{
  "lastScraped": "2026-04-20T18:50:21.319Z",
  "sources": [
    "fuelalert.io",
    "govprices"
  ],
  "stationOutages": {
    "42": {
      "stationName": "Shell Reddy Express Sutton Forest",
      "lat": -34.607616,
      "lng": 150.227232,
      "fuelTypes": [
        "ev"
      ],
      "status": "no_fuel",
      "confidence": "high",
      "firstReported": "2026-04-20T18:50:19.701Z",
      "lastConfirmed": "2026-04-20T18:50:19.701Z",
      "sources": [
        "govprices-nsw"
      ]
    },
    "819": {
      "stationName": "Ampol Foodary Gosford West (East Bound)",
      "lat": -33.427346,
      "lng": 151.321314,
      "fuelTypes": [
        "ev"
      ],
      "status": "no_fuel",
      "confidence": "high",
      "firstReported": "2026-04-20T18:50:19.702Z",
      "lastConfirmed": "2026-04-20T18:50:19.702Z",
      "sources": [
        "govprices-nsw"
      ]
    },
    "1065": {
      "stationName": "Budget Goulburn",
      "lat": -34.747919,
      "lng": 149.749345,
      "fuelTypes": [
        "ev"
      ],
      "status": "no_fuel",
      "confidence": "high",
      "firstReported": "2026-04-20T18:50:19.702Z",
      "lastConfirmed": "2026-04-20T18:50:19.702Z",
      "sources": [
        "govprices-nsw"
      ]
    },
    "1520": {
      "stationName": "BP Bonnyrigg",
      "lat": -33.894163,
      "lng": 150.857838,
      "fuelTypes": [
        "ev"
      ],
      "status": "no_fuel",
      "confidence": "high",
      "firstReported": "2026-04-20T18:50:19.702Z",
      "lastConfirmed": "2026-04-20T18:50:19.702Z",
      "sources": [
        "govprices-nsw"
      ]
    },
    "2681": {
      "stationName": "Ampol Cameron Park",
      "lat": -32.896448,
      "lng": 151.597315,
      "fuelTypes": [
        "ev"
      ],
      "status": "no_fuel",
      "confidence": "high",
      "firstReported": "2026-04-20T18:50:19.703Z",
      "lastConfirmed": "2026-04-20T18:50:19.703Z",
      "sources": [
        "govprices-nsw"
      ]
    },
    "16909": {
      "stationName": "Ampol Foodary Alexandria",
      "lat": -33.902032,
      "lng": 151.200054,
      "fuelTypes": [
        "ev"
      ],
      "status": "no_fuel",
      "confidence": "high",
      "firstReported": "2026-04-20T18:50:19.703Z",
      "lastConfirmed": "2026-04-20T18:50:19.703Z",
      "sources": [
        "govprices-nsw"
      ]
    },
    "17243": {
      "stationName": "NRMA Fast Charger",
      "lat": -33.8458976,
      "lng": 151.0697681,
      "fuelTypes": [
        "ev"
      ],
      "status": "no_fuel",
      "confidence": "high",
      "firstReported": "2026-04-20T18:50:19.703Z",
      "lastConfirmed": "2026-04-20T18:50:19.703Z",
      "sources": [
        "govprices-nsw"
      ]
    },
    "17282": {
      "stationName": "Ampol Foodary Hazelbrook",
      "lat": -33.7210678,
      "lng": 150.452084,
      "fuelTypes": [
        "ev"
      ],
      "status": "no_fuel",
      "confidence": "high",
      "firstReported": "2026-04-20T18:50:19.703Z",
      "lastConfirmed": "2026-04-20T18:50:19.703Z",
      "sources": [
        "govprices-nsw"
      ]
    },
    "17981": {
      "stationName": "Ampol Foodary Moorebank",
      "lat": -33.9293153,
      "lng": 150.9550957,
      "fuelTypes": [
        "ev"
      ],
      "status": "no_fuel",
      "confidence": "high",
      "firstReported": "2026-04-20T18:50:19.703Z",
      "lastConfirmed": "2026-04-20T18:50:19.703Z",
      "sources": [
        "govprices-nsw"
      ]
    },
    "18182": {
      "stationName": "Ampol Foodary Edmondson Park",
      "lat": -33.9566723,
      "lng": 150.86491,
      "fuelTypes": [
        "ev"
      ],
      "status": "no_fuel",
      "confidence": "high",
      "firstReported": "2026-04-20T18:50:19.703Z",
      "lastConfirmed": "2026-04-20T18:50:19.703Z",
      "sources": [
        "govprices-nsw"
      ]
    },
    "18421": {
      "stationName": "Ampol Foodary Macksville",
      "lat": -30.7097466,
      "lng": 152.9198214,
      "fuelTypes": [
        "ev"
      ],
      "status": "no_fuel",
      "confidence": "high",
      "firstReported": "2026-04-20T18:50:19.703Z",
      "lastConfirmed": "2026-04-20T18:50:19.703Z",
      "sources": [
        "govprices-nsw"
      ]
    },
    "19078": {
      "stationName": "Abercrombie House",
      "lat": -33.3927632,
      "lng": 149.5188753,
      "fuelTypes": [
        "ev"
      ],
      "status": "no_fuel",
      "confidence": "high",
      "firstReported": "2026-04-20T18:50:19.703Z",
      "lastConfirmed": "2026-04-20T18:50:19.703Z",
      "sources": [
        "govprices-nsw"
      ]
    },
    "19079": {
      "stationName": "Akuna Motor Inn & Apartments",
      "lat": -32.2522027,
      "lng": 148.5898971,
      "fuelTypes": [
        "ev"
      ],
      "status": "no_fuel",
      "confidence": "high",
      "firstReported": "2026-04-20T18:50:19.703Z",
      "lastConfirmed": "2026-04-20T18:50:19.703Z",
      "sources": [
        "govprices-nsw"
      ]
    },
    "19080": {
      "stationName": "Alabaster Motor Inn",
      "lat": -31.9028943,
      "lng": 152.4776342,
      "fuelTypes": [
        "ev"
      ],
      "status": "no_fuel",
      "confidence": "high",
      "firstReported": "2026-04-20T18:50:19.703Z",
      "lastConfirmed": "2026-04-20T18:50:19.703Z",
      "sources": [
        "govprices-nsw"
      ]
    },
    "19081": {
      "stationName": "Albury Waste Management Centre",
      "lat": -36.0294725,
      "lng": 146.8970729,
      "fuelTypes": [
        "ev"
      ],
      "status": "no_fuel",
      "confidence": "high",
      "firstReported": "2026-04-20T18:50:19.703Z",
      "lastConfirmed": "2026-04-20T18:50:19.703Z",
      "sources": [
        "govprices-nsw"
      ]
    },
    "19082": {
      "stationName": "Allianz Centre - Secure Parking",
      "lat": -33.8705978,
      "lng": 151.203956,
      "fuelTypes": [
        "ev"
      ],
      "status": "no_fuel",
      "confidence": "high",
      "firstReported": "2026-04-20T18:50:19.703Z",
      "lastConfirmed": "2026-04-20T18:50:19.703Z",
      "sources": [
        "govprices-nsw"
      ]
    },
    "19083": {
      "stationName": "Alpha Hotel Eastern Creek",
      "lat": -33.8019653,
      "lng": 150.8709764,
      "fuelTypes": [
        "ev"
      ],
      "status": "no_fuel",
      "confidence": "high",
      "firstReported": "2026-04-20T18:50:19.703Z",
      "lastConfirmed": "2026-04-20T18:50:19.703Z",
      "sources": [
        "govprices-nsw"
      ]
    },
    "19084": {
      "stationName": "Amarna Luxury Beach Resort",
      "lat": -32.7199671,
      "lng": 152.1356612,
      "fuelTypes": [
        "ev"
      ],
      "status": "no_fuel",
      "confidence": "high",
      "firstReported": "2026-04-20T18:50:19.703Z",
      "lastConfirmed": "2026-04-20T18:50:19.703Z",
      "sources": [
        "govprices-nsw"
      ]
    },
    "19085": {
      "stationName": "Ampol Seven Hills",
      "lat": -33.7670734,
      "lng": 150.9549733,
      "fuelTypes": [
        "ev"
      ],
      "status": "no_fuel",
      "confidence": "high",
      "firstReported": "2026-04-20T18:50:19.703Z",
      "lastConfirmed": "2026-04-20T18:50:19.703Z",
      "sources": [
        "govprices-nsw"
      ]
    },
    "19086": {
      "stationName": "Ana Mandara Luxury Bed & Breakfast",
      "lat": -31.4073033,
      "lng": 152.9008719,
      "fuelTypes": [
        "ev"
      ],
      "status": "no_fuel",
      "confidence": "high",
      "firstReported": "2026-04-20T18:50:19.703Z",
      "lastConfirmed": "2026-04-20T18:50:19.703Z",
      "sources": [
        "govprices-nsw"
      ]
    },
    "19087": {
      "stationName": "Anchors Aweigh Narooma",
      "lat": -36.2198467,
      "lng": 150.133492,
      "fuelTypes": [
        "ev"
      ],
      "status": "no_fuel",
      "confidence": "high",
      "firstReported": "2026-04-20T18:50:19.703Z",
      "lastConfirmed": "2026-04-20T18:50:19.703Z",
      "sources": [
        "govprices-nsw"
      ]
    },
    "19088": {
      "stationName": "Anderson Street Parking/Charging",
      "lat": -33.7964104,
      "lng": 151.1836091,
      "fuelTypes": [
        "ev"
      ],
      "status": "no_fuel",
      "confidence": "high",
      "firstReported": "2026-04-20T18:50:19.703Z",
      "lastConfirmed": "2026-04-20T18:50:19.703Z",
      "sources": [
        "govprices-nsw"
      ]
    },
    "19089": {
      "stationName": "Angullong Wine Tasting Room",
      "lat": -33.4458862,
      "lng": 149.1852109,
      "fuelTypes": [
        "ev"
      ],
      "status": "no_fuel",
      "confidence": "high",
      "firstReported": "2026-04-20T18:50:19.703Z",
      "lastConfirmed": "2026-04-20T18:50:19.703Z",
      "sources": [
        "govprices-nsw"
      ]
    },
    "19090": {
      "stationName": "Armidale Motel",
      "lat": -30.4952258,
      "lng": 151.6694665,
      "fuelTypes": [
        "ev"
      ],
      "status": "no_fuel",
      "confidence": "high",
      "firstReported": "2026-04-20T18:50:19.703Z",
      "lastConfirmed": "2026-04-20T18:50:19.703Z",
      "sources": [
        "govprices-nsw"
      ]
    },
    "19091": {
      "stationName": "Armidale Visitors Centre",
      "lat": -30.511849,
      "lng": 151.6693816,
      "fuelTypes": [
        "ev"
      ],
      "status": "no_fuel",
      "confidence": "high",
      "firstReported": "2026-04-20T18:50:19.703Z",
      "lastConfirmed": "2026-04-20T18:50:19.703Z",
      "sources": [
        "govprices-nsw"
      ]
    },
    "19092": {
      "stationName": "Aston Hill Motor Lodge",
      "lat": -31.4312459,
      "lng": 152.8968271,
      "fuelTypes": [
        "ev"
      ],
      "status": "no_fuel",
      "confidence": "high",
      "firstReported": "2026-04-20T18:50:19.703Z",
      "lastConfirmed": "2026-04-20T18:50:19.703Z",
      "sources": [
        "govprices-nsw"
      ]
    },
    "19093": {
      "stationName": "ATI Australia",
      "lat": -33.8093977,
      "lng": 151.1507426,
      "fuelTypes": [
        "ev"
      ],
      "status": "no_fuel",
      "confidence": "high",
      "firstReported": "2026-04-20T18:50:19.703Z",
      "lastConfirmed": "2026-04-20T18:50:19.703Z",
      "sources": [
        "govprices-nsw"
      ]
    },
    "19094": {
      "stationName": "Atura Blacktown",
      "lat": -33.806416,
      "lng": 150.9031472,
      "fuelTypes": [
        "ev"
      ],
      "status": "no_fuel",
      "confidence": "high",
      "firstReported": "2026-04-20T18:50:19.703Z",
      "lastConfirmed": "2026-04-20T18:50:19.703Z",
      "sources": [
        "govprices-nsw"
      ]
    },
    "19095": {
      "stationName": "Atura Hotel Albury",
      "lat": -36.0798273,
      "lng": 146.9123515,
      "fuelTypes": [
        "ev"
      ],
      "status": "no_fuel",
      "confidence": "high",
      "firstReported": "2026-04-20T18:50:19.703Z",
      "lastConfirmed": "2026-04-20T18:50:19.703Z",
      "sources": [
        "govprices-nsw"
      ]
    },
    "19096": {
      "stationName": "Audi Centre Sydney",
      "lat": -33.9066374,
      "lng": 151.2132494,
      "fuelTypes": [
        "ev"
      ],
      "status": "no_fuel",
      "confidence": "high",
      "firstReported": "2026-04-20T18:50:19.703Z",
      "lastConfirmed": "2026-04-20T18:50:19.703Z",
      "sources": [
        "govprices-nsw"
      ]
    },
    "19097": {
      "stationName": "Australasian Sports Centre Parramatta",
      "lat": -33.8327117,
      "lng": 151.0215668,
      "fuelTypes": [
        "ev"
      ],
      "status": "no_fuel",
      "confidence": "high",
      "firstReported": "2026-04-20T18:50:19.703Z",
      "lastConfirmed": "2026-04-20T18:50:19.703Z",
      "sources": [
        "govprices-nsw"
      ]
    },
    "19098": {
      "stationName": "Australia Post - Penrose CPA",
      "lat": -34.6726828,
      "lng": 150.2122963,
      "fuelTypes": [
        "ev"
      ],
      "status": "no_fuel",
      "confidence": "high",
      "firstReported": "2026-04-20T18:50:19.703Z",
      "lastConfirmed": "2026-04-20T18:50:19.703Z",
      "sources": [
        "govprices-nsw"
      ]
    },
    "19099": {
      "stationName": "Ballina Central Shopping Centre",
      "lat": -28.8575428,
      "lng": 153.5610963,
      "fuelTypes": [
        "ev"
      ],
      "status": "no_fuel",
      "confidence": "high",
      "firstReported": "2026-04-20T18:50:19.703Z",
      "lastConfirmed": "2026-04-20T18:50:19.703Z",
      "sources": [
        "govprices-nsw"
      ]
    },
    "19100": {
      "stationName": "Bangalay Luxury Villas",
      "lat": -34.8503176,
      "lng": 150.7478922,
      "fuelTypes": [
        "ev"
      ],
      "status": "no_fuel",
      "confidence": "high",
      "firstReported": "2026-04-20T18:50:19.703Z",
      "lastConfirmed": "2026-04-20T18:50:19.703Z",
      "sources": [
        "govprices-nsw"
      ]
    },
    "19101": {
      "stationName": "Banjo Paterson Park",
      "lat": -34.8411176,
      "lng": 148.9121914,
      "fuelTypes": [
        "ev"
      ],
      "status": "no_fuel",
      "confidence": "high",
      "firstReported": "2026-04-20T18:50:19.703Z",
      "lastConfirmed": "2026-04-20T18:50:19.703Z",
      "sources": [
        "govprices-nsw"
      ]
    },
    "19102": {
      "stationName": "Banksia Park cottages",
      "lat": -34.7414729,
      "lng": 150.45349,
      "fuelTypes": [
        "ev"
      ],
      "status": "no_fuel",
      "confidence": "high",
      "firstReported": "2026-04-20T18:50:19.703Z",
      "lastConfirmed": "2026-04-20T18:50:19.703Z",
      "sources": [
        "govprices-nsw"
      ]
    },
    "19103": {
      "stationName": "Bankstown Sports Club",
      "lat": -33.9199788,
      "lng": 151.0333375,
      "fuelTypes": [
        "ev"
      ],
      "status": "no_fuel",
      "confidence": "high",
      "firstReported": "2026-04-20T18:50:19.704Z",
      "lastConfirmed": "2026-04-20T18:50:19.704Z",
      "sources": [
        "govprices-nsw"
      ]
    },
    "19104": {
      "stationName": "Bannisters",
      "lat": -32.7111973,
      "lng": 152.0722165,
      "fuelTypes": [
        "ev"
      ],
      "status": "no_fuel",
      "confidence": "high",
      "firstReported": "2026-04-20T18:50:19.704Z",
      "lastConfirmed": "2026-04-20T18:50:19.704Z",
      "sources": [
        "govprices-nsw"
      ]
    },
    "19105": {
      "stationName": "Bannisters by the Sea",
      "lat": -35.3222306,
      "lng": 150.4849315,
      "fuelTypes": [
        "ev"
      ],
      "status": "no_fuel",
      "confidence": "high",
      "firstReported": "2026-04-20T18:50:19.704Z",
      "lastConfirmed": "2026-04-20T18:50:19.704Z",
      "sources": [
        "govprices-nsw"
      ]
    },
    "19106": {
      "stationName": "Bannisters Pavilion",
      "lat": -35.3250315,
      "lng": 150.4763976,
      "fuelTypes": [
        "ev"
      ],
      "status": "no_fuel",
      "confidence": "high",
      "firstReported": "2026-04-20T18:50:19.704Z",
      "lastConfirmed": "2026-04-20T18:50:19.704Z",
      "sources": [
        "govprices-nsw"
      ]
    },
    "19107": {
      "stationName": "Barron's Tyre & Mechanical",
      "lat": -31.2731036,
      "lng": 149.2792177,
      "fuelTypes": [
        "ev"
      ],
      "status": "no_fuel",
      "confidence": "high",
      "firstReported": "2026-04-20T18:50:19.704Z",
      "lastConfirmed": "2026-04-20T18:50:19.704Z",
      "sources": [
        "govprices-nsw"
      ]
    },
    "19108": {
      "stationName": "Batemans Bay Soldiers Club",
      "lat": -35.7094784,
      "lng": 150.1790805,
      "fuelTypes": [
        "ev"
      ],
      "status": "no_fuel",
      "confidence": "high",
      "firstReported": "2026-04-20T18:50:19.704Z",
      "lastConfirmed": "2026-04-20T18:50:19.705Z",
      "sources": [
        "govprices-nsw"
      ]
    },
    "19110": {
      "stationName": "Baths Motel",
      "lat": -29.4753381,
      "lng": 149.8456657,
      "fuelTypes": [
        "ev"
      ],
      "status": "no_fuel",
      "confidence": "high",
      "firstReported": "2026-04-20T18:50:19.704Z",
      "lastConfirmed": "2026-04-20T18:50:19.704Z",
      "sources": [
        "govprices-nsw"
      ]
    },
    "19112": {
      "stationName": "Bathurst Rail Museum",
      "lat": -33.4259189,
      "lng": 149.5817468,
      "fuelTypes": [
        "ev"
      ],
      "status": "no_fuel",
      "confidence": "high",
      "firstReported": "2026-04-20T18:50:19.704Z",
      "lastConfirmed": "2026-04-20T18:50:19.704Z",
      "sources": [
        "govprices-nsw"
      ]
    },
    "19113": {
      "stationName": "Bathurst Rail Museum",
      "lat": -33.4259189,
      "lng": 149.5818468,
      "fuelTypes": [
        "ev"
      ],
      "status": "no_fuel",
      "confidence": "high",
      "firstReported": "2026-04-20T18:50:19.704Z",
      "lastConfirmed": "2026-04-20T18:50:19.704Z",
      "sources": [
        "govprices-nsw"
      ]
    },
    "19114": {
      "stationName": "Bathurst Supercharger",
      "lat": -33.4186983,
      "lng": 149.5868887,
      "fuelTypes": [
        "ev"
      ],
      "status": "no_fuel",
      "confidence": "high",
      "firstReported": "2026-04-20T18:50:19.704Z",
      "lastConfirmed": "2026-04-20T18:50:19.704Z",
      "sources": [
        "govprices-nsw"
      ]
    },
    "19115": {
      "stationName": "Bathurst Visitor Information Centre",
      "lat": -33.4186983,
      "lng": 149.5867887,
      "fuelTypes": [
        "ev"
      ],
      "status": "no_fuel",
      "confidence": "high",
      "firstReported": "2026-04-20T18:50:19.704Z",
      "lastConfirmed": "2026-04-20T18:50:19.704Z",
      "sources": [
        "govprices-nsw"
      ]
    },
    "19117": {
      "stationName": "Baulkham Hills Sports Club",
      "lat": -33.7632734,
      "lng": 151.0043477,
      "fuelTypes": [
        "ev"
      ],
      "status": "no_fuel",
      "confidence": "high",
      "firstReported": "2026-04-20T18:50:19.704Z",
      "lastConfirmed": "2026-04-20T18:50:19.704Z",
      "sources": [
        "govprices-nsw"
      ]
    },
    "19118": {
      "stationName": "Beach House on She-Oak",
      "lat": -28.2899513,
      "lng": 153.5747799,
      "fuelTypes": [
        "ev"
      ],
      "status": "no_fuel",
      "confidence": "high",
      "firstReported": "2026-04-20T18:50:19.704Z",
      "lastConfirmed": "2026-04-20T18:50:19.704Z",
      "sources": [
        "govprices-nsw"
      ]
    },
    "19119": {
      "stationName": "Beach Suites Byron Bay",
      "lat": -28.6418194,
      "lng": 153.6146694,
      "fuelTypes": [
        "ev"
      ],
      "status": "no_fuel",
      "confidence": "high",
      "firstReported": "2026-04-20T18:50:19.704Z",
      "lastConfirmed": "2026-04-20T18:50:19.704Z",
      "sources": [
        "govprices-nsw"
      ]
    },
    "19120": {
      "stationName": "Bella Vista Hotel",
      "lat": -33.7365294,
      "lng": 150.9485142,
      "fuelTypes": [
        "ev"
      ],
      "status": "no_fuel",
      "confidence": "high",
      "firstReported": "2026-04-20T18:50:19.704Z",
      "lastConfirmed": "2026-04-20T18:50:19.704Z",
      "sources": [
        "govprices-nsw"
      ]
    },
    "19121": {
      "stationName": "Bellingen Valley Lodge",
      "lat": -30.4449023,
      "lng": 152.8845091,
      "fuelTypes": [
        "ev"
      ],
      "status": "no_fuel",
      "confidence": "high",
      "firstReported": "2026-04-20T18:50:19.704Z",
      "lastConfirmed": "2026-04-20T18:50:19.704Z",
      "sources": [
        "govprices-nsw"
      ]
    },
    "19122": {
      "stationName": "Bells at Killcare Boutique Hotel",
      "lat": -33.5205618,
      "lng": 151.3746149,
      "fuelTypes": [
        "ev"
      ],
      "status": "no_fuel",
      "confidence": "high",
      "firstReported": "2026-04-20T18:50:19.704Z",
      "lastConfirmed": "2026-04-20T18:50:19.704Z",
      "sources": [
        "govprices-nsw"
      ]
    },
    "19123": {
      "stationName": "Bendooley Estate",
      "lat": -34.4659347,
      "lng": 150.3616268,
      "fuelTypes": [
        "ev"
      ],
      "status": "no_fuel",
      "confidence": "high",
      "firstReported": "2026-04-20T18:50:19.704Z",
      "lastConfirmed": "2026-04-20T18:50:19.704Z",
      "sources": [
        "govprices-nsw"
      ]
    },
    "19124": {
      "stationName": "Berrara Beach Holiday Chalets",
      "lat": -35.2087147,
      "lng": 150.5488103,
      "fuelTypes": [
        "ev"
      ],
      "status": "no_fuel",
      "confidence": "high",
      "firstReported": "2026-04-20T18:50:19.704Z",
      "lastConfirmed": "2026-04-20T18:50:19.704Z",
      "sources": [
        "govprices-nsw"
      ]
    },
    "19125": {
      "stationName": "Berry Bowling Club",
      "lat": -34.7760967,
      "lng": 150.70099,
      "fuelTypes": [
        "ev"
      ],
      "status": "no_fuel",
      "confidence": "high",
      "firstReported": "2026-04-20T18:50:19.704Z",
      "lastConfirmed": "2026-04-20T18:50:19.704Z",
      "sources": [
        "govprices-nsw"
      ]
    },
    "19126": {
      "stationName": "Berry Supercharger",
      "lat": -34.8081727,
      "lng": 150.6362791,
      "fuelTypes": [
        "ev"
      ],
      "status": "no_fuel",
      "confidence": "high",
      "firstReported": "2026-04-20T18:50:19.704Z",
      "lastConfirmed": "2026-04-20T18:50:19.704Z",
      "sources": [
        "govprices-nsw"
      ]
    },
    "19127": {
      "stationName": "Best Western Bluegum Motel",
      "lat": -32.2550201,
      "lng": 148.6102601,
      "fuelTypes": [
        "ev"
      ],
      "status": "no_fuel",
      "confidence": "high",
      "firstReported": "2026-04-20T18:50:19.704Z",
      "lastConfirmed": "2026-04-20T18:50:19.704Z",
      "sources": [
        "govprices-nsw"
      ]
    },
    "19128": {
      "stationName": "Best Western PLUS Apollo International",
      "lat": -32.9568871,
      "lng": 151.7013414,
      "fuelTypes": [
        "ev"
      ],
      "status": "no_fuel",
      "confidence": "high",
      "firstReported": "2026-04-20T18:50:19.704Z",
      "lastConfirmed": "2026-04-20T18:50:19.704Z",
      "sources": [
        "govprices-nsw"
      ]
    },
    "19129": {
      "stationName": "Best Western Plus Goulburn",
      "lat": -34.7471604,
      "lng": 149.7294597,
      "fuelTypes": [
        "ev"
      ],
      "status": "no_fuel",
      "confidence": "high",
      "firstReported": "2026-04-20T18:50:19.704Z",
      "lastConfirmed": "2026-04-20T18:50:19.704Z",
      "sources": [
        "govprices-nsw"
      ]
    },
    "19130": {
      "stationName": "Bethany Manor",
      "lat": -33.708221,
      "lng": 150.3270623,
      "fuelTypes": [
        "ev"
      ],
      "status": "no_fuel",
      "confidence": "high",
      "firstReported": "2026-04-20T18:50:19.704Z",
      "lastConfirmed": "2026-04-20T18:50:19.704Z",
      "sources": [
        "govprices-nsw"
      ]
    },
    "19131": {
      "stationName": "Birkenhead Point Outlet Centre",
      "lat": -33.8555224,
      "lng": 151.1621054,
      "fuelTypes": [
        "ev"
      ],
      "status": "no_fuel",
      "confidence": "high",
      "firstReported": "2026-04-20T18:50:19.704Z",
      "lastConfirmed": "2026-04-20T18:50:19.704Z",
      "sources": [
        "govprices-nsw"
      ]
    },
    "19132": {
      "stationName": "Birkenhead Point Outlet Centre",
      "lat": -33.8555224,
      "lng": 151.1622054,
      "fuelTypes": [
        "ev"
      ],
      "status": "no_fuel",
      "confidence": "high",
      "firstReported": "2026-04-20T18:50:19.704Z",
      "lastConfirmed": "2026-04-20T18:50:19.704Z",
      "sources": [
        "govprices-nsw"
      ]
    },
    "19133": {
      "stationName": "Birkenhead Point Outlet Centre",
      "lat": -33.8555224,
      "lng": 151.1623054,
      "fuelTypes": [
        "ev"
      ],
      "status": "no_fuel",
      "confidence": "high",
      "firstReported": "2026-04-20T18:50:19.704Z",
      "lastConfirmed": "2026-04-20T18:50:19.704Z",
      "sources": [
        "govprices-nsw"
      ]
    },
    "19136": {
      "stationName": "Blackwall Mountain Airbnb",
      "lat": -33.5050479,
      "lng": 151.3372659,
      "fuelTypes": [
        "ev"
      ],
      "status": "no_fuel",
      "confidence": "high",
      "firstReported": "2026-04-20T18:50:19.704Z",
      "lastConfirmed": "2026-04-20T18:50:19.704Z",
      "sources": [
        "govprices-nsw"
      ]
    },
    "19137": {
      "stationName": "Blue Emu Car Park",
      "lat": -33.9380083,
      "lng": 151.1924793,
      "fuelTypes": [
        "ev"
      ],
      "status": "no_fuel",
      "confidence": "high",
      "firstReported": "2026-04-20T18:50:19.704Z",
      "lastConfirmed": "2026-04-20T18:50:19.704Z",
      "sources": [
        "govprices-nsw"
      ]
    },
    "19138": {
      "stationName": "Blue Wren Wines",
      "lat": -32.5634047,
      "lng": 149.6199933,
      "fuelTypes": [
        "ev"
      ],
      "status": "no_fuel",
      "confidence": "high",
      "firstReported": "2026-04-20T18:50:19.704Z",
      "lastConfirmed": "2026-04-20T18:50:19.704Z",
      "sources": [
        "govprices-nsw"
      ]
    },
    "19139": {
      "stationName": "Bodalla Dairy Shed and Cheese Factory",
      "lat": -36.0867598,
      "lng": 150.0495483,
      "fuelTypes": [
        "ev"
      ],
      "status": "no_fuel",
      "confidence": "high",
      "firstReported": "2026-04-20T18:50:19.704Z",
      "lastConfirmed": "2026-04-20T18:50:19.704Z",
      "sources": [
        "govprices-nsw"
      ]
    },
    "19140": {
      "stationName": "Bondi Beach Park",
      "lat": -33.8900918,
      "lng": 151.2770796,
      "fuelTypes": [
        "ev"
      ],
      "status": "no_fuel",
      "confidence": "high",
      "firstReported": "2026-04-20T18:50:19.704Z",
      "lastConfirmed": "2026-04-20T18:50:19.704Z",
      "sources": [
        "govprices-nsw"
      ]
    },
    "19141": {
      "stationName": "Bourke Riverside Motel",
      "lat": -30.0894031,
      "lng": 145.9424975,
      "fuelTypes": [
        "ev"
      ],
      "status": "no_fuel",
      "confidence": "high",
      "firstReported": "2026-04-20T18:50:19.704Z",
      "lastConfirmed": "2026-04-20T18:50:19.704Z",
      "sources": [
        "govprices-nsw"
      ]
    },
    "19142": {
      "stationName": "BP Karuah",
      "lat": -32.6540422,
      "lng": 151.9629131,
      "fuelTypes": [
        "ev"
      ],
      "status": "no_fuel",
      "confidence": "high",
      "firstReported": "2026-04-20T18:50:19.704Z",
      "lastConfirmed": "2026-04-20T18:50:19.704Z",
      "sources": [
        "govprices-nsw"
      ]
    },
    "19143": {
      "stationName": "Bressington Park Carpark",
      "lat": -33.855129,
      "lng": 151.078781,
      "fuelTypes": [
        "ev"
      ],
      "status": "no_fuel",
      "confidence": "high",
      "firstReported": "2026-04-20T18:50:19.704Z",
      "lastConfirmed": "2026-04-20T18:50:19.704Z",
      "sources": [
        "govprices-nsw"
      ]
    },
    "19144": {
      "stationName": "Brigidine College Wilson Car Park",
      "lat": -33.92008,
      "lng": 151.2437997,
      "fuelTypes": [
        "ev"
      ],
      "status": "no_fuel",
      "confidence": "high",
      "firstReported": "2026-04-20T18:50:19.704Z",
      "lastConfirmed": "2026-04-20T18:50:19.704Z",
      "sources": [
        "govprices-nsw"
      ]
    },
    "19145": {
      "stationName": "Broadway Shopping Centre",
      "lat": -33.8827784,
      "lng": 151.1948135,
      "fuelTypes": [
        "ev"
      ],
      "status": "no_fuel",
      "confidence": "high",
      "firstReported": "2026-04-20T18:50:19.704Z",
      "lastConfirmed": "2026-04-20T18:50:19.704Z",
      "sources": [
        "govprices-nsw"
      ]
    },
    "19146": {
      "stationName": "Broadway Shopping Centre",
      "lat": -33.8827784,
      "lng": 151.1949135,
      "fuelTypes": [
        "ev"
      ],
      "status": "no_fuel",
      "confidence": "high",
      "firstReported": "2026-04-20T18:50:19.704Z",
      "lastConfirmed": "2026-04-20T18:50:19.704Z",
      "sources": [
        "govprices-nsw"
      ]
    },
    "19147": {
      "stationName": "Broadway Shopping Centre",
      "lat": -33.8827784,
      "lng": 151.1950135,
      "fuelTypes": [
        "ev"
      ],
      "status": "no_fuel",
      "confidence": "high",
      "firstReported": "2026-04-20T18:50:19.704Z",
      "lastConfirmed": "2026-04-20T18:50:19.704Z",
      "sources": [
        "govprices-nsw"
      ]
    },
    "19148": {
      "stationName": "Brokenwood Wines",
      "lat": -32.7760644,
      "lng": 151.2996067,
      "fuelTypes": [
        "ev"
      ],
      "status": "no_fuel",
      "confidence": "high",
      "firstReported": "2026-04-20T18:50:19.704Z",
      "lastConfirmed": "2026-04-20T18:50:19.704Z",
      "sources": [
        "govprices-nsw"
      ]
    },
    "19149": {
      "stationName": "Brunswick River Inn",
      "lat": -28.5398912,
      "lng": 153.5521886,
      "fuelTypes": [
        "ev"
      ],
      "status": "no_fuel",
      "confidence": "high",
      "firstReported": "2026-04-20T18:50:19.704Z",
      "lastConfirmed": "2026-04-20T18:50:19.704Z",
      "sources": [
        "govprices-nsw"
      ]
    },
    "19150": {
      "stationName": "Byron at Byron Resort and Spa",
      "lat": -28.67874,
      "lng": 153.610284,
      "fuelTypes": [
        "ev"
      ],
      "status": "no_fuel",
      "confidence": "high",
      "firstReported": "2026-04-20T18:50:19.704Z",
      "lastConfirmed": "2026-04-20T18:50:19.704Z",
      "sources": [
        "govprices-nsw"
      ]
    },
    "19151": {
      "stationName": "Byron Bay Library",
      "lat": -28.6433595,
      "lng": 153.6156974,
      "fuelTypes": [
        "ev"
      ],
      "status": "no_fuel",
      "confidence": "high",
      "firstReported": "2026-04-20T18:50:19.704Z",
      "lastConfirmed": "2026-04-20T18:50:19.704Z",
      "sources": [
        "govprices-nsw"
      ]
    },
    "19152": {
      "stationName": "Byron Cove Beach House",
      "lat": -28.6389004,
      "lng": 153.6037346,
      "fuelTypes": [
        "ev"
      ],
      "status": "no_fuel",
      "confidence": "high",
      "firstReported": "2026-04-20T18:50:19.704Z",
      "lastConfirmed": "2026-04-20T18:50:19.704Z",
      "sources": [
        "govprices-nsw"
      ]
    },
    "19153": {
      "stationName": "Byron Shire Carpark",
      "lat": -28.5548759,
      "lng": 153.5024149,
      "fuelTypes": [
        "ev"
      ],
      "status": "no_fuel",
      "confidence": "high",
      "firstReported": "2026-04-20T18:50:19.704Z",
      "lastConfirmed": "2026-04-20T18:50:19.704Z",
      "sources": [
        "govprices-nsw"
      ]
    },
    "19154": {
      "stationName": "Byron Stay",
      "lat": -28.6395098,
      "lng": 153.6043671,
      "fuelTypes": [
        "ev"
      ],
      "status": "no_fuel",
      "confidence": "high",
      "firstReported": "2026-04-20T18:50:19.704Z",
      "lastConfirmed": "2026-04-20T18:50:19.704Z",
      "sources": [
        "govprices-nsw"
      ]
    },
    "19155": {
      "stationName": "Cabins in the Clouds",
      "lat": -32.5423289,
      "lng": 151.5011005,
      "fuelTypes": [
        "ev"
      ],
      "status": "no_fuel",
      "confidence": "high",
      "firstReported": "2026-04-20T18:50:19.704Z",
      "lastConfirmed": "2026-04-20T18:50:19.704Z",
      "sources": [
        "govprices-nsw"
      ]
    },
    "19156": {
      "stationName": "Cabramatta Hotel",
      "lat": -33.8966772,
      "lng": 150.9379107,
      "fuelTypes": [
        "ev"
      ],
      "status": "no_fuel",
      "confidence": "high",
      "firstReported": "2026-04-20T18:50:19.704Z",
      "lastConfirmed": "2026-04-20T18:50:19.704Z",
      "sources": [
        "govprices-nsw"
      ]
    },
    "19157": {
      "stationName": "Caddens Corner",
      "lat": -33.7695689,
      "lng": 150.7339002,
      "fuelTypes": [
        "ev"
      ],
      "status": "no_fuel",
      "confidence": "high",
      "firstReported": "2026-04-20T18:50:19.704Z",
      "lastConfirmed": "2026-04-20T18:50:19.704Z",
      "sources": [
        "govprices-nsw"
      ]
    },
    "19158": {
      "stationName": "Cafe Loftus",
      "lat": -34.0424537,
      "lng": 151.0489528,
      "fuelTypes": [
        "ev"
      ],
      "status": "no_fuel",
      "confidence": "high",
      "firstReported": "2026-04-20T18:50:19.704Z",
      "lastConfirmed": "2026-04-20T18:50:19.704Z",
      "sources": [
        "govprices-nsw"
      ]
    },
    "19159": {
      "stationName": "Caltex Macksville",
      "lat": -30.7098041,
      "lng": 152.9198314,
      "fuelTypes": [
        "ev"
      ],
      "status": "no_fuel",
      "confidence": "high",
      "firstReported": "2026-04-20T18:50:19.704Z",
      "lastConfirmed": "2026-04-20T18:50:19.704Z",
      "sources": [
        "govprices-nsw"
      ]
    },
    "19160": {
      "stationName": "Caltex Tarcutta",
      "lat": -35.2774924,
      "lng": 147.7358735,
      "fuelTypes": [
        "ev"
      ],
      "status": "no_fuel",
      "confidence": "high",
      "firstReported": "2026-04-20T18:50:19.704Z",
      "lastConfirmed": "2026-04-20T18:50:19.704Z",
      "sources": [
        "govprices-nsw"
      ]
    },
    "19161": {
      "stationName": "Cameron Park Plaza",
      "lat": -32.9164148,
      "lng": 151.597277,
      "fuelTypes": [
        "ev"
      ],
      "status": "no_fuel",
      "confidence": "high",
      "firstReported": "2026-04-20T18:50:19.704Z",
      "lastConfirmed": "2026-04-20T18:50:19.704Z",
      "sources": [
        "govprices-nsw"
      ]
    },
    "19162": {
      "stationName": "Canterbury Bankstown Council",
      "lat": -33.9076689,
      "lng": 151.1039558,
      "fuelTypes": [
        "ev"
      ],
      "status": "no_fuel",
      "confidence": "high",
      "firstReported": "2026-04-20T18:50:19.704Z",
      "lastConfirmed": "2026-04-20T18:50:19.704Z",
      "sources": [
        "govprices-nsw"
      ]
    },
    "19163": {
      "stationName": "Captain's Quarters Townhouses Bermagui",
      "lat": -36.419857,
      "lng": 150.063318,
      "fuelTypes": [
        "ev"
      ],
      "status": "no_fuel",
      "confidence": "high",
      "firstReported": "2026-04-20T18:50:19.704Z",
      "lastConfirmed": "2026-04-20T18:50:19.704Z",
      "sources": [
        "govprices-nsw"
      ]
    },
    "19164": {
      "stationName": "Casino RSM",
      "lat": -28.8624736,
      "lng": 153.0493516,
      "fuelTypes": [
        "ev"
      ],
      "status": "no_fuel",
      "confidence": "high",
      "firstReported": "2026-04-20T18:50:19.704Z",
      "lastConfirmed": "2026-04-20T18:50:19.704Z",
      "sources": [
        "govprices-nsw"
      ]
    },
    "19165": {
      "stationName": "Casino RSM",
      "lat": -28.8624736,
      "lng": 153.0494516,
      "fuelTypes": [
        "ev"
      ],
      "status": "no_fuel",
      "confidence": "high",
      "firstReported": "2026-04-20T18:50:19.704Z",
      "lastConfirmed": "2026-04-20T18:50:19.704Z",
      "sources": [
        "govprices-nsw"
      ]
    },
    "19166": {
      "stationName": "Castle Towers Shopping Centre",
      "lat": -33.7296502,
      "lng": 151.0068965,
      "fuelTypes": [
        "ev"
      ],
      "status": "no_fuel",
      "confidence": "high",
      "firstReported": "2026-04-20T18:50:19.704Z",
      "lastConfirmed": "2026-04-20T18:50:19.704Z",
      "sources": [
        "govprices-nsw"
      ]
    },
    "19167": {
      "stationName": "Caves Coastal Bar and Bungalows",
      "lat": -33.1047393,
      "lng": 151.647899,
      "fuelTypes": [
        "ev"
      ],
      "status": "no_fuel",
      "confidence": "high",
      "firstReported": "2026-04-20T18:50:19.704Z",
      "lastConfirmed": "2026-04-20T18:50:19.704Z",
      "sources": [
        "govprices-nsw"
      ]
    },
    "19168": {
      "stationName": "Central Coast Supercharger",
      "lat": -33.3129437,
      "lng": 151.4218481,
      "fuelTypes": [
        "ev"
      ],
      "status": "no_fuel",
      "confidence": "high",
      "firstReported": "2026-04-20T18:50:19.704Z",
      "lastConfirmed": "2026-04-20T18:50:19.704Z",
      "sources": [
        "govprices-nsw"
      ]
    },
    "19169": {
      "stationName": "Central Jetty Motel",
      "lat": -33.3677873,
      "lng": 151.4753987,
      "fuelTypes": [
        "ev"
      ],
      "status": "no_fuel",
      "confidence": "high",
      "firstReported": "2026-04-20T18:50:19.704Z",
      "lastConfirmed": "2026-04-20T18:50:19.704Z",
      "sources": [
        "govprices-nsw"
      ]
    },
    "19170": {
      "stationName": "Charles Dalglish",
      "lat": -33.5683775,
      "lng": 150.2001079,
      "fuelTypes": [
        "ev"
      ],
      "status": "no_fuel",
      "confidence": "high",
      "firstReported": "2026-04-20T18:50:19.704Z",
      "lastConfirmed": "2026-04-20T18:50:19.704Z",
      "sources": [
        "govprices-nsw"
      ]
    },
    "19171": {
      "stationName": "Charles St Parking/Charging",
      "lat": -33.9117284,
      "lng": 151.1174279,
      "fuelTypes": [
        "ev"
      ],
      "status": "no_fuel",
      "confidence": "high",
      "firstReported": "2026-04-20T18:50:19.704Z",
      "lastConfirmed": "2026-04-20T18:50:19.704Z",
      "sources": [
        "govprices-nsw"
      ]
    },
    "19172": {
      "stationName": "Cherrybrook Village",
      "lat": -33.7209507,
      "lng": 151.043454,
      "fuelTypes": [
        "ev"
      ],
      "status": "no_fuel",
      "confidence": "high",
      "firstReported": "2026-04-20T18:50:19.704Z",
      "lastConfirmed": "2026-04-20T18:50:19.704Z",
      "sources": [
        "govprices-nsw"
      ]
    },
    "19173": {
      "stationName": "Cherrybrook Village",
      "lat": -33.7209507,
      "lng": 151.043554,
      "fuelTypes": [
        "ev"
      ],
      "status": "no_fuel",
      "confidence": "high",
      "firstReported": "2026-04-20T18:50:19.704Z",
      "lastConfirmed": "2026-04-20T18:50:19.704Z",
      "sources": [
        "govprices-nsw"
      ]
    },
    "19174": {
      "stationName": "Cherrybrook Village",
      "lat": -33.7209507,
      "lng": 151.043654,
      "fuelTypes": [
        "ev"
      ],
      "status": "no_fuel",
      "confidence": "high",
      "firstReported": "2026-04-20T18:50:19.704Z",
      "lastConfirmed": "2026-04-20T18:50:19.704Z",
      "sources": [
        "govprices-nsw"
      ]
    },
    "19175": {
      "stationName": "Church St Car Park",
      "lat": -36.6733612,
      "lng": 149.8432026,
      "fuelTypes": [
        "ev"
      ],
      "status": "no_fuel",
      "confidence": "high",
      "firstReported": "2026-04-20T18:50:19.704Z",
      "lastConfirmed": "2026-04-20T18:50:19.704Z",
      "sources": [
        "govprices-nsw"
      ]
    },
    "19178": {
      "stationName": "Coffs Harbour",
      "lat": -30.3178012,
      "lng": 153.0899415,
      "fuelTypes": [
        "ev"
      ],
      "status": "no_fuel",
      "confidence": "high",
      "firstReported": "2026-04-20T18:50:19.704Z",
      "lastConfirmed": "2026-04-20T18:50:19.704Z",
      "sources": [
        "govprices-nsw"
      ]
    },
    "19179": {
      "stationName": "Coffs Harbour Supercharger",
      "lat": -30.2826558,
      "lng": 153.1314176,
      "fuelTypes": [
        "ev"
      ],
      "status": "no_fuel",
      "confidence": "high",
      "firstReported": "2026-04-20T18:50:19.704Z",
      "lastConfirmed": "2026-04-20T18:50:19.704Z",
      "sources": [
        "govprices-nsw"
      ]
    },
    "19180": {
      "stationName": "Coles Huntlee",
      "lat": -32.6701592,
      "lng": 151.35064,
      "fuelTypes": [
        "ev"
      ],
      "status": "no_fuel",
      "confidence": "high",
      "firstReported": "2026-04-20T18:50:19.704Z",
      "lastConfirmed": "2026-04-20T18:50:19.704Z",
      "sources": [
        "govprices-nsw"
      ]
    },
    "19181": {
      "stationName": "Coogee Eastward Senior Citizens Hall",
      "lat": -33.919164,
      "lng": 151.2548881,
      "fuelTypes": [
        "ev"
      ],
      "status": "no_fuel",
      "confidence": "high",
      "firstReported": "2026-04-20T18:50:19.704Z",
      "lastConfirmed": "2026-04-20T18:50:19.704Z",
      "sources": [
        "govprices-nsw"
      ]
    },
    "19182": {
      "stationName": "Cooma Supercharger",
      "lat": -36.236015,
      "lng": 149.1261314,
      "fuelTypes": [
        "ev"
      ],
      "status": "no_fuel",
      "confidence": "high",
      "firstReported": "2026-04-20T18:50:19.704Z",
      "lastConfirmed": "2026-04-20T18:50:19.704Z",
      "sources": [
        "govprices-nsw"
      ]
    },
    "19183": {
      "stationName": "Coomealla Motel",
      "lat": -34.0946142,
      "lng": 142.0388599,
      "fuelTypes": [
        "ev"
      ],
      "status": "no_fuel",
      "confidence": "high",
      "firstReported": "2026-04-20T18:50:19.704Z",
      "lastConfirmed": "2026-04-20T18:50:19.704Z",
      "sources": [
        "govprices-nsw"
      ]
    },
    "19184": {
      "stationName": "Coonabarabran Visitors Centre",
      "lat": -31.278816,
      "lng": 149.279312,
      "fuelTypes": [
        "ev"
      ],
      "status": "no_fuel",
      "confidence": "high",
      "firstReported": "2026-04-20T18:50:19.704Z",
      "lastConfirmed": "2026-04-20T18:50:19.704Z",
      "sources": [
        "govprices-nsw"
      ]
    },
    "19185": {
      "stationName": "Country Mile Motor Inn",
      "lat": -33.3836595,
      "lng": 148.0098383,
      "fuelTypes": [
        "ev"
      ],
      "status": "no_fuel",
      "confidence": "high",
      "firstReported": "2026-04-20T18:50:19.704Z",
      "lastConfirmed": "2026-04-20T18:50:19.704Z",
      "sources": [
        "govprices-nsw"
      ]
    },
    "19186": {
      "stationName": "Cowra Art Gallery Car Park",
      "lat": -33.8344591,
      "lng": 148.6940855,
      "fuelTypes": [
        "ev"
      ],
      "status": "no_fuel",
      "confidence": "high",
      "firstReported": "2026-04-20T18:50:19.704Z",
      "lastConfirmed": "2026-04-20T18:50:19.704Z",
      "sources": [
        "govprices-nsw"
      ]
    },
    "19187": {
      "stationName": "Crowne Plaza Coogee",
      "lat": -33.9224589,
      "lng": 151.2558206,
      "fuelTypes": [
        "ev"
      ],
      "status": "no_fuel",
      "confidence": "high",
      "firstReported": "2026-04-20T18:50:19.704Z",
      "lastConfirmed": "2026-04-20T18:50:19.704Z",
      "sources": [
        "govprices-nsw"
      ]
    },
    "19188": {
      "stationName": "Crowne Plaza Darling Harbour",
      "lat": -33.8739184,
      "lng": 151.2040542,
      "fuelTypes": [
        "ev"
      ],
      "status": "no_fuel",
      "confidence": "high",
      "firstReported": "2026-04-20T18:50:19.704Z",
      "lastConfirmed": "2026-04-20T18:50:19.704Z",
      "sources": [
        "govprices-nsw"
      ]
    },
    "19190": {
      "stationName": "Crowne Plaza Hunter Valley",
      "lat": -32.7811478,
      "lng": 151.3487977,
      "fuelTypes": [
        "ev"
      ],
      "status": "no_fuel",
      "confidence": "high",
      "firstReported": "2026-04-20T18:50:19.704Z",
      "lastConfirmed": "2026-04-20T18:50:19.704Z",
      "sources": [
        "govprices-nsw"
      ]
    },
    "19191": {
      "stationName": "Crowne Plaza Terrigal",
      "lat": -33.448629,
      "lng": 151.4452447,
      "fuelTypes": [
        "ev"
      ],
      "status": "no_fuel",
      "confidence": "high",
      "firstReported": "2026-04-20T18:50:19.704Z",
      "lastConfirmed": "2026-04-20T18:50:19.704Z",
      "sources": [
        "govprices-nsw"
      ]
    },
    "19192": {
      "stationName": "CSIRO Energy Centre",
      "lat": -32.8846225,
      "lng": 151.7283475,
      "fuelTypes": [
        "ev"
      ],
      "status": "no_fuel",
      "confidence": "high",
      "firstReported": "2026-04-20T18:50:19.704Z",
      "lastConfirmed": "2026-04-20T18:50:19.704Z",
      "sources": [
        "govprices-nsw"
      ]
    },
    "19193": {
      "stationName": "Cypress Lakes Resort, Golf and Country Club",
      "lat": -32.7857778,
      "lng": 151.2851456,
      "fuelTypes": [
        "ev"
      ],
      "status": "no_fuel",
      "confidence": "high",
      "firstReported": "2026-04-20T18:50:19.704Z",
      "lastConfirmed": "2026-04-20T18:50:19.704Z",
      "sources": [
        "govprices-nsw"
      ]
    },
    "19194": {
      "stationName": "Dan Murphy's Batemans Bay",
      "lat": -35.7099345,
      "lng": 150.1777589,
      "fuelTypes": [
        "ev"
      ],
      "status": "no_fuel",
      "confidence": "high",
      "firstReported": "2026-04-20T18:50:19.704Z",
      "lastConfirmed": "2026-04-20T18:50:19.704Z",
      "sources": [
        "govprices-nsw"
      ]
    },
    "19195": {
      "stationName": "Darling Park - Wilson Parking",
      "lat": -33.8712161,
      "lng": 151.203816,
      "fuelTypes": [
        "ev"
      ],
      "status": "no_fuel",
      "confidence": "high",
      "firstReported": "2026-04-20T18:50:19.704Z",
      "lastConfirmed": "2026-04-20T18:50:19.704Z",
      "sources": [
        "govprices-nsw"
      ]
    },
    "19196": {
      "stationName": "Des Renford Leisure Centre",
      "lat": -33.950653,
      "lng": 151.2388365,
      "fuelTypes": [
        "ev"
      ],
      "status": "no_fuel",
      "confidence": "high",
      "firstReported": "2026-04-20T18:50:19.704Z",
      "lastConfirmed": "2026-04-20T18:50:19.704Z",
      "sources": [
        "govprices-nsw"
      ]
    },
    "19197": {
      "stationName": "Discovery Parks Pambula Beach",
      "lat": -36.9418372,
      "lng": 149.9066231,
      "fuelTypes": [
        "ev"
      ],
      "status": "no_fuel",
      "confidence": "high",
      "firstReported": "2026-04-20T18:50:19.704Z",
      "lastConfirmed": "2026-04-20T18:50:19.704Z",
      "sources": [
        "govprices-nsw"
      ]
    },
    "19198": {
      "stationName": "Donegal Farmstay",
      "lat": -29.235626,
      "lng": 152.0129861,
      "fuelTypes": [
        "ev"
      ],
      "status": "no_fuel",
      "confidence": "high",
      "firstReported": "2026-04-20T18:50:19.704Z",
      "lastConfirmed": "2026-04-20T18:50:19.704Z",
      "sources": [
        "govprices-nsw"
      ]
    },
    "19199": {
      "stationName": "Dragonfly Cottages",
      "lat": -33.272863,
      "lng": 149.0163655,
      "fuelTypes": [
        "ev"
      ],
      "status": "no_fuel",
      "confidence": "high",
      "firstReported": "2026-04-20T18:50:19.704Z",
      "lastConfirmed": "2026-04-20T18:50:19.704Z",
      "sources": [
        "govprices-nsw"
      ]
    },
    "19200": {
      "stationName": "Driver Reviver Car Park",
      "lat": -33.8356839,
      "lng": 148.6803744,
      "fuelTypes": [
        "ev"
      ],
      "status": "no_fuel",
      "confidence": "high",
      "firstReported": "2026-04-20T18:50:19.704Z",
      "lastConfirmed": "2026-04-20T18:50:19.704Z",
      "sources": [
        "govprices-nsw"
      ]
    },
    "19201": {
      "stationName": "Dubbo Supercharger",
      "lat": -32.249559,
      "lng": 148.6101591,
      "fuelTypes": [
        "ev"
      ],
      "status": "no_fuel",
      "confidence": "high",
      "firstReported": "2026-04-20T18:50:19.704Z",
      "lastConfirmed": "2026-04-20T18:50:19.704Z",
      "sources": [
        "govprices-nsw"
      ]
    },
    "19202": {
      "stationName": "East Village Shopping Centre",
      "lat": -33.9052704,
      "lng": 151.2130888,
      "fuelTypes": [
        "ev"
      ],
      "status": "no_fuel",
      "confidence": "high",
      "firstReported": "2026-04-20T18:50:19.704Z",
      "lastConfirmed": "2026-04-20T18:50:19.704Z",
      "sources": [
        "govprices-nsw"
      ]
    },
    "19203": {
      "stationName": "East Village Shopping Centre",
      "lat": -33.9052704,
      "lng": 151.2131888,
      "fuelTypes": [
        "ev"
      ],
      "status": "no_fuel",
      "confidence": "high",
      "firstReported": "2026-04-20T18:50:19.704Z",
      "lastConfirmed": "2026-04-20T18:50:19.704Z",
      "sources": [
        "govprices-nsw"
      ]
    },
    "19204": {
      "stationName": "Eastern Creek Quarter",
      "lat": -33.7839196,
      "lng": 150.8525994,
      "fuelTypes": [
        "ev"
      ],
      "status": "no_fuel",
      "confidence": "high",
      "firstReported": "2026-04-20T18:50:19.704Z",
      "lastConfirmed": "2026-04-20T18:50:19.704Z",
      "sources": [
        "govprices-nsw"
      ]
    },
    "19205": {
      "stationName": "Econo Lodge Moree Spa Motor Inn",
      "lat": -29.4707544,
      "lng": 149.8468883,
      "fuelTypes": [
        "ev"
      ],
      "status": "no_fuel",
      "confidence": "high",
      "firstReported": "2026-04-20T18:50:19.704Z",
      "lastConfirmed": "2026-04-20T18:50:19.704Z",
      "sources": [
        "govprices-nsw"
      ]
    },
    "19206": {
      "stationName": "Ed Square Town Centre",
      "lat": -33.9697113,
      "lng": 150.8580757,
      "fuelTypes": [
        "ev"
      ],
      "status": "no_fuel",
      "confidence": "high",
      "firstReported": "2026-04-20T18:50:19.704Z",
      "lastConfirmed": "2026-04-20T18:50:19.704Z",
      "sources": [
        "govprices-nsw"
      ]
    },
    "19207": {
      "stationName": "Eden Gardens",
      "lat": -33.780526,
      "lng": 151.1340844,
      "fuelTypes": [
        "ev"
      ],
      "status": "no_fuel",
      "confidence": "high",
      "firstReported": "2026-04-20T18:50:19.704Z",
      "lastConfirmed": "2026-04-20T18:50:19.704Z",
      "sources": [
        "govprices-nsw"
      ]
    },
    "19208": {
      "stationName": "Elements of Byron Bay Car Park",
      "lat": -28.6258093,
      "lng": 153.5869648,
      "fuelTypes": [
        "ev"
      ],
      "status": "no_fuel",
      "confidence": "high",
      "firstReported": "2026-04-20T18:50:19.704Z",
      "lastConfirmed": "2026-04-20T18:50:19.704Z",
      "sources": [
        "govprices-nsw"
      ]
    },
    "19209": {
      "stationName": "Elm Cottage Tumut",
      "lat": -35.3326444,
      "lng": 148.3176869,
      "fuelTypes": [
        "ev"
      ],
      "status": "no_fuel",
      "confidence": "high",
      "firstReported": "2026-04-20T18:50:19.704Z",
      "lastConfirmed": "2026-04-20T18:50:19.704Z",
      "sources": [
        "govprices-nsw"
      ]
    },
    "19211": {
      "stationName": "Emerald Hills Shopping Village",
      "lat": -33.9964797,
      "lng": 150.7924412,
      "fuelTypes": [
        "ev"
      ],
      "status": "no_fuel",
      "confidence": "high",
      "firstReported": "2026-04-20T18:50:19.704Z",
      "lastConfirmed": "2026-04-20T18:50:19.704Z",
      "sources": [
        "govprices-nsw"
      ]
    },
    "19212": {
      "stationName": "Emirates One & Only Wolgan Valley",
      "lat": -33.2278234,
      "lng": 150.2080922,
      "fuelTypes": [
        "ev"
      ],
      "status": "no_fuel",
      "confidence": "high",
      "firstReported": "2026-04-20T18:50:19.704Z",
      "lastConfirmed": "2026-04-20T18:50:19.704Z",
      "sources": [
        "govprices-nsw"
      ]
    },
    "19213": {
      "stationName": "Emirates One & Only Wolgan Valley",
      "lat": -33.2278234,
      "lng": 150.2081922,
      "fuelTypes": [
        "ev"
      ],
      "status": "no_fuel",
      "confidence": "high",
      "firstReported": "2026-04-20T18:50:19.704Z",
      "lastConfirmed": "2026-04-20T18:50:19.704Z",
      "sources": [
        "govprices-nsw"
      ]
    },
    "19214": {
      "stationName": "Epiq Market Shopping Center",
      "lat": -28.8073752,
      "lng": 153.5823758,
      "fuelTypes": [
        "ev"
      ],
      "status": "no_fuel",
      "confidence": "high",
      "firstReported": "2026-04-20T18:50:19.704Z",
      "lastConfirmed": "2026-04-20T18:50:19.704Z",
      "sources": [
        "govprices-nsw"
      ]
    },
    "19215": {
      "stationName": "Erina Fair",
      "lat": -33.4393717,
      "lng": 151.3911387,
      "fuelTypes": [
        "ev"
      ],
      "status": "no_fuel",
      "confidence": "high",
      "firstReported": "2026-04-20T18:50:19.704Z",
      "lastConfirmed": "2026-04-20T18:50:19.704Z",
      "sources": [
        "govprices-nsw"
      ]
    },
    "19216": {
      "stationName": "Euston Bowling & Recreation Club",
      "lat": -34.5801684,
      "lng": 142.7433766,
      "fuelTypes": [
        "ev"
      ],
      "status": "no_fuel",
      "confidence": "high",
      "firstReported": "2026-04-20T18:50:19.704Z",
      "lastConfirmed": "2026-04-20T18:50:19.704Z",
      "sources": [
        "govprices-nsw"
      ]
    },
    "19217": {
      "stationName": "evse.com.au",
      "lat": -33.7692352,
      "lng": 150.9469445,
      "fuelTypes": [
        "ev"
      ],
      "status": "no_fuel",
      "confidence": "high",
      "firstReported": "2026-04-20T18:50:19.704Z",
      "lastConfirmed": "2026-04-20T18:50:19.704Z",
      "sources": [
        "govprices-nsw"
      ]
    },
    "19218": {
      "stationName": "EVUp at Train St Central",
      "lat": -35.8439249,
      "lng": 150.1713257,
      "fuelTypes": [
        "ev"
      ],
      "status": "no_fuel",
      "confidence": "high",
      "firstReported": "2026-04-20T18:50:19.704Z",
      "lastConfirmed": "2026-04-20T18:50:19.704Z",
      "sources": [
        "govprices-nsw"
      ]
    },
    "19219": {
      "stationName": "Fairmont Resort Blue Mountains",
      "lat": -33.7208785,
      "lng": 150.3514193,
      "fuelTypes": [
        "ev"
      ],
      "status": "no_fuel",
      "confidence": "high",
      "firstReported": "2026-04-20T18:50:19.704Z",
      "lastConfirmed": "2026-04-20T18:50:19.705Z",
      "sources": [
        "govprices-nsw"
      ]
    },
    "19220": {
      "stationName": "Figtree Grove Shopping Centre",
      "lat": -34.4366153,
      "lng": 150.8632982,
      "fuelTypes": [
        "ev"
      ],
      "status": "no_fuel",
      "confidence": "high",
      "firstReported": "2026-04-20T18:50:19.704Z",
      "lastConfirmed": "2026-04-20T18:50:19.704Z",
      "sources": [
        "govprices-nsw"
      ]
    },
    "19221": {
      "stationName": "Fitzroy Motel Inn",
      "lat": -29.694289,
      "lng": 152.9382181,
      "fuelTypes": [
        "ev"
      ],
      "status": "no_fuel",
      "confidence": "high",
      "firstReported": "2026-04-20T18:50:19.704Z",
      "lastConfirmed": "2026-04-20T18:50:19.704Z",
      "sources": [
        "govprices-nsw"
      ]
    },
    "19222": {
      "stationName": "Flash Jacks of Gundagai",
      "lat": -35.0644143,
      "lng": 148.1072521,
      "fuelTypes": [
        "ev"
      ],
      "status": "no_fuel",
      "confidence": "high",
      "firstReported": "2026-04-20T18:50:19.704Z",
      "lastConfirmed": "2026-04-20T18:50:19.704Z",
      "sources": [
        "govprices-nsw"
      ]
    },
    "19223": {
      "stationName": "Glen Innes Town Hall",
      "lat": -29.7385773,
      "lng": 151.7358401,
      "fuelTypes": [
        "ev"
      ],
      "status": "no_fuel",
      "confidence": "high",
      "firstReported": "2026-04-20T18:50:19.704Z",
      "lastConfirmed": "2026-04-20T18:50:19.704Z",
      "sources": [
        "govprices-nsw"
      ]
    },
    "19224": {
      "stationName": "Glen Innes Visitor Information Centre",
      "lat": -29.7381427,
      "lng": 151.7376761,
      "fuelTypes": [
        "ev"
      ],
      "status": "no_fuel",
      "confidence": "high",
      "firstReported": "2026-04-20T18:50:19.704Z",
      "lastConfirmed": "2026-04-20T18:50:19.704Z",
      "sources": [
        "govprices-nsw"
      ]
    },
    "19225": {
      "stationName": "Glen Innes Visitor Information Centre",
      "lat": -29.7381427,
      "lng": 151.7377761,
      "fuelTypes": [
        "ev"
      ],
      "status": "no_fuel",
      "confidence": "high",
      "firstReported": "2026-04-20T18:50:19.704Z",
      "lastConfirmed": "2026-04-20T18:50:19.704Z",
      "sources": [
        "govprices-nsw"
      ]
    },
    "19226": {
      "stationName": "Glenferrie Lodge Kirribilli",
      "lat": -33.8501441,
      "lng": 151.2182433,
      "fuelTypes": [
        "ev"
      ],
      "status": "no_fuel",
      "confidence": "high",
      "firstReported": "2026-04-20T18:50:19.704Z",
      "lastConfirmed": "2026-04-20T18:50:19.704Z",
      "sources": [
        "govprices-nsw"
      ]
    },
    "19227": {
      "stationName": "Glenguin Estate & Vineyard",
      "lat": -32.7461755,
      "lng": 151.0732014,
      "fuelTypes": [
        "ev"
      ],
      "status": "no_fuel",
      "confidence": "high",
      "firstReported": "2026-04-20T18:50:19.704Z",
      "lastConfirmed": "2026-04-20T18:50:19.704Z",
      "sources": [
        "govprices-nsw"
      ]
    },
    "19228": {
      "stationName": "Glenrock Gardens",
      "lat": -29.000386,
      "lng": 152.023975,
      "fuelTypes": [
        "ev"
      ],
      "status": "no_fuel",
      "confidence": "high",
      "firstReported": "2026-04-20T18:50:19.704Z",
      "lastConfirmed": "2026-04-20T18:50:19.704Z",
      "sources": [
        "govprices-nsw"
      ]
    },
    "19229": {
      "stationName": "Gosford Inn Motel",
      "lat": -33.3926197,
      "lng": 151.3535782,
      "fuelTypes": [
        "ev"
      ],
      "status": "no_fuel",
      "confidence": "high",
      "firstReported": "2026-04-20T18:50:19.704Z",
      "lastConfirmed": "2026-04-20T18:50:19.704Z",
      "sources": [
        "govprices-nsw"
      ]
    },
    "19230": {
      "stationName": "Goulburn Gateway Service Station",
      "lat": -34.7479625,
      "lng": 149.7496447,
      "fuelTypes": [
        "ev"
      ],
      "status": "no_fuel",
      "confidence": "high",
      "firstReported": "2026-04-20T18:50:19.704Z",
      "lastConfirmed": "2026-04-20T18:50:19.704Z",
      "sources": [
        "govprices-nsw"
      ]
    },
    "19231": {
      "stationName": "Goulburn Supercharger",
      "lat": -34.7559863,
      "lng": 149.720817,
      "fuelTypes": [
        "ev"
      ],
      "status": "no_fuel",
      "confidence": "high",
      "firstReported": "2026-04-20T18:50:19.704Z",
      "lastConfirmed": "2026-04-20T18:50:19.704Z",
      "sources": [
        "govprices-nsw"
      ]
    },
    "19232": {
      "stationName": "Goulburn Visitor Information Centre",
      "lat": -34.7559863,
      "lng": 149.720717,
      "fuelTypes": [
        "ev"
      ],
      "status": "no_fuel",
      "confidence": "high",
      "firstReported": "2026-04-20T18:50:19.704Z",
      "lastConfirmed": "2026-04-20T18:50:19.704Z",
      "sources": [
        "govprices-nsw"
      ]
    },
    "19233": {
      "stationName": "Grafton Library Car Park",
      "lat": -29.6882866,
      "lng": 152.9334258,
      "fuelTypes": [
        "ev"
      ],
      "status": "no_fuel",
      "confidence": "high",
      "firstReported": "2026-04-20T18:50:19.704Z",
      "lastConfirmed": "2026-04-20T18:50:19.704Z",
      "sources": [
        "govprices-nsw"
      ]
    },
    "19235": {
      "stationName": "Great Northern Trading Post",
      "lat": -32.9903224,
      "lng": 151.1305038,
      "fuelTypes": [
        "ev"
      ],
      "status": "no_fuel",
      "confidence": "high",
      "firstReported": "2026-04-20T18:50:19.704Z",
      "lastConfirmed": "2026-04-20T18:50:19.704Z",
      "sources": [
        "govprices-nsw"
      ]
    },
    "19236": {
      "stationName": "Greenwood Plaza",
      "lat": -33.8406884,
      "lng": 151.2075778,
      "fuelTypes": [
        "ev"
      ],
      "status": "no_fuel",
      "confidence": "high",
      "firstReported": "2026-04-20T18:50:19.704Z",
      "lastConfirmed": "2026-04-20T18:50:19.704Z",
      "sources": [
        "govprices-nsw"
      ]
    },
    "19237": {
      "stationName": "Greenwood Plaza",
      "lat": -33.8406884,
      "lng": 151.2076778,
      "fuelTypes": [
        "ev"
      ],
      "status": "no_fuel",
      "confidence": "high",
      "firstReported": "2026-04-20T18:50:19.704Z",
      "lastConfirmed": "2026-04-20T18:50:19.704Z",
      "sources": [
        "govprices-nsw"
      ]
    },
    "19238": {
      "stationName": "Griffith Visitor Information Centre",
      "lat": -34.2891433,
      "lng": 146.050738,
      "fuelTypes": [
        "ev"
      ],
      "status": "no_fuel",
      "confidence": "high",
      "firstReported": "2026-04-20T18:50:19.704Z",
      "lastConfirmed": "2026-04-20T18:50:19.704Z",
      "sources": [
        "govprices-nsw"
      ]
    },
    "19239": {
      "stationName": "Grosvenor Place (7 Essex St)",
      "lat": -33.8629649,
      "lng": 151.207252,
      "fuelTypes": [
        "ev"
      ],
      "status": "no_fuel",
      "confidence": "high",
      "firstReported": "2026-04-20T18:50:19.704Z",
      "lastConfirmed": "2026-04-20T18:50:19.704Z",
      "sources": [
        "govprices-nsw"
      ]
    },
    "19240": {
      "stationName": "GT Tooling",
      "lat": -33.628374,
      "lng": 150.832673,
      "fuelTypes": [
        "ev"
      ],
      "status": "no_fuel",
      "confidence": "high",
      "firstReported": "2026-04-20T18:50:19.704Z",
      "lastConfirmed": "2026-04-20T18:50:19.704Z",
      "sources": [
        "govprices-nsw"
      ]
    },
    "19241": {
      "stationName": "Gundagai Supercharger",
      "lat": -35.001912,
      "lng": 148.111399,
      "fuelTypes": [
        "ev"
      ],
      "status": "no_fuel",
      "confidence": "high",
      "firstReported": "2026-04-20T18:50:19.704Z",
      "lastConfirmed": "2026-04-20T18:50:19.704Z",
      "sources": [
        "govprices-nsw"
      ]
    },
    "19242": {
      "stationName": "Gymea Eco Retreat & Spa",
      "lat": -28.4033923,
      "lng": 153.3489445,
      "fuelTypes": [
        "ev"
      ],
      "status": "no_fuel",
      "confidence": "high",
      "firstReported": "2026-04-20T18:50:19.704Z",
      "lastConfirmed": "2026-04-20T18:50:19.704Z",
      "sources": [
        "govprices-nsw"
      ]
    },
    "19243": {
      "stationName": "Habitat Byron Bay",
      "lat": -28.6315079,
      "lng": 153.5822565,
      "fuelTypes": [
        "ev"
      ],
      "status": "no_fuel",
      "confidence": "high",
      "firstReported": "2026-04-20T18:50:19.704Z",
      "lastConfirmed": "2026-04-20T18:50:19.704Z",
      "sources": [
        "govprices-nsw"
      ]
    },
    "19244": {
      "stationName": "Hands of Fame Park",
      "lat": -31.0904667,
      "lng": 150.9273942,
      "fuelTypes": [
        "ev"
      ],
      "status": "no_fuel",
      "confidence": "high",
      "firstReported": "2026-04-20T18:50:19.704Z",
      "lastConfirmed": "2026-04-20T18:50:19.704Z",
      "sources": [
        "govprices-nsw"
      ]
    },
    "19245": {
      "stationName": "Hands of Fame Park",
      "lat": -31.0904667,
      "lng": 150.9274942,
      "fuelTypes": [
        "ev"
      ],
      "status": "no_fuel",
      "confidence": "high",
      "firstReported": "2026-04-20T18:50:19.704Z",
      "lastConfirmed": "2026-04-20T18:50:19.704Z",
      "sources": [
        "govprices-nsw"
      ]
    },
    "19246": {
      "stationName": "Harbord Diggers",
      "lat": -33.7792946,
      "lng": 151.292454,
      "fuelTypes": [
        "ev"
      ],
      "status": "no_fuel",
      "confidence": "high",
      "firstReported": "2026-04-20T18:50:19.704Z",
      "lastConfirmed": "2026-04-20T18:50:19.704Z",
      "sources": [
        "govprices-nsw"
      ]
    },
    "19247": {
      "stationName": "Harbourside Wilson Parking",
      "lat": -33.870915,
      "lng": 151.1974125,
      "fuelTypes": [
        "ev"
      ],
      "status": "no_fuel",
      "confidence": "high",
      "firstReported": "2026-04-20T18:50:19.704Z",
      "lastConfirmed": "2026-04-20T18:50:19.704Z",
      "sources": [
        "govprices-nsw"
      ]
    },
    "19248": {
      "stationName": "Hartley Green Power",
      "lat": -33.5688932,
      "lng": 150.2041974,
      "fuelTypes": [
        "ev"
      ],
      "status": "no_fuel",
      "confidence": "high",
      "firstReported": "2026-04-20T18:50:19.704Z",
      "lastConfirmed": "2026-04-20T18:50:19.704Z",
      "sources": [
        "govprices-nsw"
      ]
    },
    "19249": {
      "stationName": "Heatherbrae Supercharger",
      "lat": -32.7877473,
      "lng": 151.7278323,
      "fuelTypes": [
        "ev"
      ],
      "status": "no_fuel",
      "confidence": "high",
      "firstReported": "2026-04-20T18:50:19.704Z",
      "lastConfirmed": "2026-04-20T18:50:19.704Z",
      "sources": [
        "govprices-nsw"
      ]
    },
    "19250": {
      "stationName": "Heifer Station Wines",
      "lat": -33.2592048,
      "lng": 149.0038317,
      "fuelTypes": [
        "ev"
      ],
      "status": "no_fuel",
      "confidence": "high",
      "firstReported": "2026-04-20T18:50:19.704Z",
      "lastConfirmed": "2026-04-20T18:50:19.704Z",
      "sources": [
        "govprices-nsw"
      ]
    },
    "19251": {
      "stationName": "Highfields Chalet",
      "lat": -36.4105901,
      "lng": 148.7199593,
      "fuelTypes": [
        "ev"
      ],
      "status": "no_fuel",
      "confidence": "high",
      "firstReported": "2026-04-20T18:50:19.704Z",
      "lastConfirmed": "2026-04-20T18:50:19.704Z",
      "sources": [
        "govprices-nsw"
      ]
    },
    "19252": {
      "stationName": "Highland Heritage Estate",
      "lat": -33.3111454,
      "lng": 149.1433758,
      "fuelTypes": [
        "ev"
      ],
      "status": "no_fuel",
      "confidence": "high",
      "firstReported": "2026-04-20T18:50:19.704Z",
      "lastConfirmed": "2026-04-20T18:50:19.704Z",
      "sources": [
        "govprices-nsw"
      ]
    },
    "19253": {
      "stationName": "Hills Flower Market",
      "lat": -33.6886646,
      "lng": 151.2236545,
      "fuelTypes": [
        "ev"
      ],
      "status": "no_fuel",
      "confidence": "high",
      "firstReported": "2026-04-20T18:50:19.704Z",
      "lastConfirmed": "2026-04-20T18:50:19.704Z",
      "sources": [
        "govprices-nsw"
      ]
    },
    "19254": {
      "stationName": "Hillview Farmstay",
      "lat": -35.1964853,
      "lng": 147.8178208,
      "fuelTypes": [
        "ev"
      ],
      "status": "no_fuel",
      "confidence": "high",
      "firstReported": "2026-04-20T18:50:19.704Z",
      "lastConfirmed": "2026-04-20T18:50:19.704Z",
      "sources": [
        "govprices-nsw"
      ]
    },
    "19255": {
      "stationName": "Hilton Sydney",
      "lat": -33.8720109,
      "lng": 151.207892,
      "fuelTypes": [
        "ev"
      ],
      "status": "no_fuel",
      "confidence": "high",
      "firstReported": "2026-04-20T18:50:19.704Z",
      "lastConfirmed": "2026-04-20T18:50:19.704Z",
      "sources": [
        "govprices-nsw"
      ]
    },
    "19256": {
      "stationName": "Holiday Inn Sydney Airport",
      "lat": -33.9269751,
      "lng": 151.1895731,
      "fuelTypes": [
        "ev"
      ],
      "status": "no_fuel",
      "confidence": "high",
      "firstReported": "2026-04-20T18:50:19.704Z",
      "lastConfirmed": "2026-04-20T18:50:19.704Z",
      "sources": [
        "govprices-nsw"
      ]
    },
    "19257": {
      "stationName": "Hollydene Supercharger",
      "lat": -32.4483139,
      "lng": 150.8314993,
      "fuelTypes": [
        "ev"
      ],
      "status": "no_fuel",
      "confidence": "high",
      "firstReported": "2026-04-20T18:50:19.704Z",
      "lastConfirmed": "2026-04-20T18:50:19.704Z",
      "sources": [
        "govprices-nsw"
      ]
    },
    "19258": {
      "stationName": "Holtermann St Carpark",
      "lat": -33.8251258,
      "lng": 151.2021849,
      "fuelTypes": [
        "ev"
      ],
      "status": "no_fuel",
      "confidence": "high",
      "firstReported": "2026-04-20T18:50:19.704Z",
      "lastConfirmed": "2026-04-20T18:50:19.704Z",
      "sources": [
        "govprices-nsw"
      ]
    },
    "19259": {
      "stationName": "Howlong Golf Resort",
      "lat": -35.9841874,
      "lng": 146.6432731,
      "fuelTypes": [
        "ev"
      ],
      "status": "no_fuel",
      "confidence": "high",
      "firstReported": "2026-04-20T18:50:19.704Z",
      "lastConfirmed": "2026-04-20T18:50:19.704Z",
      "sources": [
        "govprices-nsw"
      ]
    },
    "19260": {
      "stationName": "Hume St Carpark",
      "lat": -33.8244407,
      "lng": 151.1998883,
      "fuelTypes": [
        "ev"
      ],
      "status": "no_fuel",
      "confidence": "high",
      "firstReported": "2026-04-20T18:50:19.704Z",
      "lastConfirmed": "2026-04-20T18:50:19.704Z",
      "sources": [
        "govprices-nsw"
      ]
    },
    "19261": {
      "stationName": "Hunter Valley Cooperage B",
      "lat": -32.8251403,
      "lng": 151.3264179,
      "fuelTypes": [
        "ev"
      ],
      "status": "no_fuel",
      "confidence": "high",
      "firstReported": "2026-04-20T18:50:19.704Z",
      "lastConfirmed": "2026-04-20T18:50:19.704Z",
      "sources": [
        "govprices-nsw"
      ]
    },
    "19262": {
      "stationName": "Hunter Valley Gardens Carpark",
      "lat": -32.7740327,
      "lng": 151.2955771,
      "fuelTypes": [
        "ev"
      ],
      "status": "no_fuel",
      "confidence": "high",
      "firstReported": "2026-04-20T18:50:19.704Z",
      "lastConfirmed": "2026-04-20T18:50:19.704Z",
      "sources": [
        "govprices-nsw"
      ]
    },
    "19263": {
      "stationName": "Hunter Valley Resort",
      "lat": -32.7290635,
      "lng": 151.2591116,
      "fuelTypes": [
        "ev"
      ],
      "status": "no_fuel",
      "confidence": "high",
      "firstReported": "2026-04-20T18:50:19.704Z",
      "lastConfirmed": "2026-04-20T18:50:19.704Z",
      "sources": [
        "govprices-nsw"
      ]
    },
    "19264": {
      "stationName": "Hunter Wetlands Centre",
      "lat": -32.8780102,
      "lng": 151.6968309,
      "fuelTypes": [
        "ev"
      ],
      "status": "no_fuel",
      "confidence": "high",
      "firstReported": "2026-04-20T18:50:19.704Z",
      "lastConfirmed": "2026-04-20T18:50:19.704Z",
      "sources": [
        "govprices-nsw"
      ]
    },
    "19265": {
      "stationName": "Hyundai Brookvale Dealership",
      "lat": -33.7640894,
      "lng": 151.2707929,
      "fuelTypes": [
        "ev"
      ],
      "status": "no_fuel",
      "confidence": "high",
      "firstReported": "2026-04-20T18:50:19.704Z",
      "lastConfirmed": "2026-04-20T18:50:19.704Z",
      "sources": [
        "govprices-nsw"
      ]
    },
    "19266": {
      "stationName": "IBIS Styles The Entrance",
      "lat": -33.3524924,
      "lng": 151.4889255,
      "fuelTypes": [
        "ev"
      ],
      "status": "no_fuel",
      "confidence": "high",
      "firstReported": "2026-04-20T18:50:19.704Z",
      "lastConfirmed": "2026-04-20T18:50:19.704Z",
      "sources": [
        "govprices-nsw"
      ]
    },
    "19267": {
      "stationName": "ICC Sydney Exhibition Centre Car Park (Car Park 1)",
      "lat": -33.8751814,
      "lng": 151.1998628,
      "fuelTypes": [
        "ev"
      ],
      "status": "no_fuel",
      "confidence": "high",
      "firstReported": "2026-04-20T18:50:19.704Z",
      "lastConfirmed": "2026-04-20T18:50:19.704Z",
      "sources": [
        "govprices-nsw"
      ]
    },
    "19268": {
      "stationName": "Innovation Campus - SBRC (Building 237)",
      "lat": -34.4007439,
      "lng": 150.8982098,
      "fuelTypes": [
        "ev"
      ],
      "status": "no_fuel",
      "confidence": "high",
      "firstReported": "2026-04-20T18:50:19.704Z",
      "lastConfirmed": "2026-04-20T18:50:19.704Z",
      "sources": [
        "govprices-nsw"
      ]
    },
    "19269": {
      "stationName": "Intercontinental Hotel",
      "lat": -33.8628857,
      "lng": 151.2123616,
      "fuelTypes": [
        "ev"
      ],
      "status": "no_fuel",
      "confidence": "high",
      "firstReported": "2026-04-20T18:50:19.704Z",
      "lastConfirmed": "2026-04-20T18:50:19.704Z",
      "sources": [
        "govprices-nsw"
      ]
    },
    "19270": {
      "stationName": "Intercontinental Hotel",
      "lat": -33.8628857,
      "lng": 151.2124616,
      "fuelTypes": [
        "ev"
      ],
      "status": "no_fuel",
      "confidence": "high",
      "firstReported": "2026-04-20T18:50:19.704Z",
      "lastConfirmed": "2026-04-20T18:50:19.704Z",
      "sources": [
        "govprices-nsw"
      ]
    },
    "19271": {
      "stationName": "Intercontinental Sydney Double Bay",
      "lat": -33.8764552,
      "lng": 151.2430418,
      "fuelTypes": [
        "ev"
      ],
      "status": "no_fuel",
      "confidence": "high",
      "firstReported": "2026-04-20T18:50:19.704Z",
      "lastConfirmed": "2026-04-20T18:50:19.704Z",
      "sources": [
        "govprices-nsw"
      ]
    },
    "19272": {
      "stationName": "Jenolan Caves House",
      "lat": -33.8207078,
      "lng": 150.0214396,
      "fuelTypes": [
        "ev"
      ],
      "status": "no_fuel",
      "confidence": "high",
      "firstReported": "2026-04-20T18:50:19.704Z",
      "lastConfirmed": "2026-04-20T18:50:19.704Z",
      "sources": [
        "govprices-nsw"
      ]
    },
    "19273": {
      "stationName": "Joadja Distillery",
      "lat": -34.4235692,
      "lng": 150.2150038,
      "fuelTypes": [
        "ev"
      ],
      "status": "no_fuel",
      "confidence": "high",
      "firstReported": "2026-04-20T18:50:19.704Z",
      "lastConfirmed": "2026-04-20T18:50:19.704Z",
      "sources": [
        "govprices-nsw"
      ]
    },
    "19274": {
      "stationName": "Joadja Historic Site & Distillery",
      "lat": -34.4235692,
      "lng": 150.2149038,
      "fuelTypes": [
        "ev"
      ],
      "status": "no_fuel",
      "confidence": "high",
      "firstReported": "2026-04-20T18:50:19.704Z",
      "lastConfirmed": "2026-04-20T18:50:19.704Z",
      "sources": [
        "govprices-nsw"
      ]
    },
    "19276": {
      "stationName": "Jugiong Playground and Swimming Pool",
      "lat": -34.8237247,
      "lng": 148.3247877,
      "fuelTypes": [
        "ev"
      ],
      "status": "no_fuel",
      "confidence": "high",
      "firstReported": "2026-04-20T18:50:19.704Z",
      "lastConfirmed": "2026-04-20T18:50:19.704Z",
      "sources": [
        "govprices-nsw"
      ]
    },
    "19277": {
      "stationName": "Kandos Museum",
      "lat": -32.8602711,
      "lng": 149.9734874,
      "fuelTypes": [
        "ev"
      ],
      "status": "no_fuel",
      "confidence": "high",
      "firstReported": "2026-04-20T18:50:19.704Z",
      "lastConfirmed": "2026-04-20T18:50:19.704Z",
      "sources": [
        "govprices-nsw"
      ]
    },
    "19278": {
      "stationName": "Keith Tulloch Winery",
      "lat": -32.734869,
      "lng": 151.261453,
      "fuelTypes": [
        "ev"
      ],
      "status": "no_fuel",
      "confidence": "high",
      "firstReported": "2026-04-20T18:50:19.704Z",
      "lastConfirmed": "2026-04-20T18:50:19.704Z",
      "sources": [
        "govprices-nsw"
      ]
    },
    "19279": {
      "stationName": "Kelly St Car Park",
      "lat": -32.0499784,
      "lng": 150.8672054,
      "fuelTypes": [
        "ev"
      ],
      "status": "no_fuel",
      "confidence": "high",
      "firstReported": "2026-04-20T18:50:19.704Z",
      "lastConfirmed": "2026-04-20T18:50:19.704Z",
      "sources": [
        "govprices-nsw"
      ]
    },
    "19280": {
      "stationName": "Kew Motel",
      "lat": -31.6345965,
      "lng": 152.7237084,
      "fuelTypes": [
        "ev"
      ],
      "status": "no_fuel",
      "confidence": "high",
      "firstReported": "2026-04-20T18:50:19.704Z",
      "lastConfirmed": "2026-04-20T18:50:19.704Z",
      "sources": [
        "govprices-nsw"
      ]
    },
    "19281": {
      "stationName": "KFC Frenchs Forest",
      "lat": -33.7515351,
      "lng": 151.2441705,
      "fuelTypes": [
        "ev"
      ],
      "status": "no_fuel",
      "confidence": "high",
      "firstReported": "2026-04-20T18:50:19.704Z",
      "lastConfirmed": "2026-04-20T18:50:19.704Z",
      "sources": [
        "govprices-nsw"
      ]
    },
    "19282": {
      "stationName": "Kiaora Place Shopping Centre",
      "lat": -33.8783925,
      "lng": 151.2439428,
      "fuelTypes": [
        "ev"
      ],
      "status": "no_fuel",
      "confidence": "high",
      "firstReported": "2026-04-20T18:50:19.704Z",
      "lastConfirmed": "2026-04-20T18:50:19.704Z",
      "sources": [
        "govprices-nsw"
      ]
    },
    "19283": {
      "stationName": "Kim's Beachside Retreat",
      "lat": -33.3608295,
      "lng": 151.4989637,
      "fuelTypes": [
        "ev"
      ],
      "status": "no_fuel",
      "confidence": "high",
      "firstReported": "2026-04-20T18:50:19.704Z",
      "lastConfirmed": "2026-04-20T18:50:19.704Z",
      "sources": [
        "govprices-nsw"
      ]
    },
    "19284": {
      "stationName": "Kingscliff Shopping Centre",
      "lat": -28.2555425,
      "lng": 153.5749473,
      "fuelTypes": [
        "ev"
      ],
      "status": "no_fuel",
      "confidence": "high",
      "firstReported": "2026-04-20T18:50:19.704Z",
      "lastConfirmed": "2026-04-20T18:50:19.704Z",
      "sources": [
        "govprices-nsw"
      ]
    },
    "19285": {
      "stationName": "Kirkton Park Hunter Valley",
      "lat": -32.8086229,
      "lng": 151.3054373,
      "fuelTypes": [
        "ev"
      ],
      "status": "no_fuel",
      "confidence": "high",
      "firstReported": "2026-04-20T18:50:19.704Z",
      "lastConfirmed": "2026-04-20T18:50:19.704Z",
      "sources": [
        "govprices-nsw"
      ]
    },
    "19286": {
      "stationName": "Kloster Nissan",
      "lat": -32.9239076,
      "lng": 151.7462861,
      "fuelTypes": [
        "ev"
      ],
      "status": "no_fuel",
      "confidence": "high",
      "firstReported": "2026-04-20T18:50:19.704Z",
      "lastConfirmed": "2026-04-20T18:50:19.704Z",
      "sources": [
        "govprices-nsw"
      ]
    },
    "19287": {
      "stationName": "Knockrow Supercharger",
      "lat": -28.7498479,
      "lng": 153.5331633,
      "fuelTypes": [
        "ev"
      ],
      "status": "no_fuel",
      "confidence": "high",
      "firstReported": "2026-04-20T18:50:19.704Z",
      "lastConfirmed": "2026-04-20T18:50:19.704Z",
      "sources": [
        "govprices-nsw"
      ]
    },
    "19288": {
      "stationName": "Koala Tree Motel",
      "lat": -31.4347033,
      "lng": 152.8981371,
      "fuelTypes": [
        "ev"
      ],
      "status": "no_fuel",
      "confidence": "high",
      "firstReported": "2026-04-20T18:50:19.704Z",
      "lastConfirmed": "2026-04-20T18:50:19.704Z",
      "sources": [
        "govprices-nsw"
      ]
    },
    "19290": {
      "stationName": "Lake Crackenback Resort",
      "lat": -36.452248,
      "lng": 148.4673822,
      "fuelTypes": [
        "ev"
      ],
      "status": "no_fuel",
      "confidence": "high",
      "firstReported": "2026-04-20T18:50:19.704Z",
      "lastConfirmed": "2026-04-20T18:50:19.704Z",
      "sources": [
        "govprices-nsw"
      ]
    },
    "19291": {
      "stationName": "Lake George Winery",
      "lat": -34.984996,
      "lng": 149.383795,
      "fuelTypes": [
        "ev"
      ],
      "status": "no_fuel",
      "confidence": "high",
      "firstReported": "2026-04-20T18:50:19.704Z",
      "lastConfirmed": "2026-04-20T18:50:19.704Z",
      "sources": [
        "govprices-nsw"
      ]
    },
    "19292": {
      "stationName": "Lake Macquarie Council",
      "lat": -32.9600691,
      "lng": 151.6236683,
      "fuelTypes": [
        "ev"
      ],
      "status": "no_fuel",
      "confidence": "high",
      "firstReported": "2026-04-20T18:50:19.704Z",
      "lastConfirmed": "2026-04-20T18:50:19.704Z",
      "sources": [
        "govprices-nsw"
      ]
    },
    "19293": {
      "stationName": "Laman St Parking/Charging",
      "lat": -32.929377,
      "lng": 151.7719625,
      "fuelTypes": [
        "ev"
      ],
      "status": "no_fuel",
      "confidence": "high",
      "firstReported": "2026-04-20T18:50:19.704Z",
      "lastConfirmed": "2026-04-20T18:50:19.704Z",
      "sources": [
        "govprices-nsw"
      ]
    },
    "19294": {
      "stationName": "Lane Cove Market Square Car Park",
      "lat": -33.8151643,
      "lng": 151.1691303,
      "fuelTypes": [
        "ev"
      ],
      "status": "no_fuel",
      "confidence": "high",
      "firstReported": "2026-04-20T18:50:19.704Z",
      "lastConfirmed": "2026-04-20T18:50:19.704Z",
      "sources": [
        "govprices-nsw"
      ]
    },
    "19295": {
      "stationName": "Latitude One",
      "lat": -32.7617363,
      "lng": 152.0828909,
      "fuelTypes": [
        "ev"
      ],
      "status": "no_fuel",
      "confidence": "high",
      "firstReported": "2026-04-20T18:50:19.704Z",
      "lastConfirmed": "2026-04-20T18:50:19.704Z",
      "sources": [
        "govprices-nsw"
      ]
    },
    "19296": {
      "stationName": "Lismore Bounty Motel",
      "lat": -28.8129865,
      "lng": 153.275264,
      "fuelTypes": [
        "ev"
      ],
      "status": "no_fuel",
      "confidence": "high",
      "firstReported": "2026-04-20T18:50:19.704Z",
      "lastConfirmed": "2026-04-20T18:50:19.704Z",
      "sources": [
        "govprices-nsw"
      ]
    },
    "19297": {
      "stationName": "Lithgow Workies Club",
      "lat": -33.4777272,
      "lng": 150.1609403,
      "fuelTypes": [
        "ev"
      ],
      "status": "no_fuel",
      "confidence": "high",
      "firstReported": "2026-04-20T18:50:19.704Z",
      "lastConfirmed": "2026-04-20T18:50:19.704Z",
      "sources": [
        "govprices-nsw"
      ]
    },
    "19298": {
      "stationName": "Little Barber St Parking Lot",
      "lat": -30.9781149,
      "lng": 150.2509491,
      "fuelTypes": [
        "ev"
      ],
      "status": "no_fuel",
      "confidence": "high",
      "firstReported": "2026-04-20T18:50:19.704Z",
      "lastConfirmed": "2026-04-20T18:50:19.704Z",
      "sources": [
        "govprices-nsw"
      ]
    },
    "19299": {
      "stationName": "Little Street Car Park",
      "lat": -33.8135344,
      "lng": 151.1715451,
      "fuelTypes": [
        "ev"
      ],
      "status": "no_fuel",
      "confidence": "high",
      "firstReported": "2026-04-20T18:50:19.704Z",
      "lastConfirmed": "2026-04-20T18:50:19.704Z",
      "sources": [
        "govprices-nsw"
      ]
    },
    "19300": {
      "stationName": "Lovell St Car Park",
      "lat": -34.3117962,
      "lng": 148.2949118,
      "fuelTypes": [
        "ev"
      ],
      "status": "no_fuel",
      "confidence": "high",
      "firstReported": "2026-04-20T18:50:19.704Z",
      "lastConfirmed": "2026-04-20T18:50:19.704Z",
      "sources": [
        "govprices-nsw"
      ]
    },
    "19301": {
      "stationName": "Luke Park",
      "lat": -35.3558361,
      "lng": 145.7278158,
      "fuelTypes": [
        "ev"
      ],
      "status": "no_fuel",
      "confidence": "high",
      "firstReported": "2026-04-20T18:50:19.704Z",
      "lastConfirmed": "2026-04-20T18:50:19.704Z",
      "sources": [
        "govprices-nsw"
      ]
    },
    "19302": {
      "stationName": "Luxury Blue Mountains Accommodation",
      "lat": -33.7219754,
      "lng": 150.3716578,
      "fuelTypes": [
        "ev"
      ],
      "status": "no_fuel",
      "confidence": "high",
      "firstReported": "2026-04-20T18:50:19.704Z",
      "lastConfirmed": "2026-04-20T18:50:19.704Z",
      "sources": [
        "govprices-nsw"
      ]
    },
    "19303": {
      "stationName": "M-Arts Precinct Murwillumbah",
      "lat": -28.3271389,
      "lng": 153.3948305,
      "fuelTypes": [
        "ev"
      ],
      "status": "no_fuel",
      "confidence": "high",
      "firstReported": "2026-04-20T18:50:19.704Z",
      "lastConfirmed": "2026-04-20T18:50:19.704Z",
      "sources": [
        "govprices-nsw"
      ]
    },
    "19304": {
      "stationName": "Macarthur Centre for Sustainable Living",
      "lat": -34.0556271,
      "lng": 150.771849,
      "fuelTypes": [
        "ev"
      ],
      "status": "no_fuel",
      "confidence": "high",
      "firstReported": "2026-04-20T18:50:19.704Z",
      "lastConfirmed": "2026-04-20T18:50:19.704Z",
      "sources": [
        "govprices-nsw"
      ]
    },
    "19305": {
      "stationName": "Macarthur Square Shopping Centre",
      "lat": -34.0748763,
      "lng": 150.7976685,
      "fuelTypes": [
        "ev"
      ],
      "status": "no_fuel",
      "confidence": "high",
      "firstReported": "2026-04-20T18:50:19.704Z",
      "lastConfirmed": "2026-04-20T18:50:19.704Z",
      "sources": [
        "govprices-nsw"
      ]
    },
    "19306": {
      "stationName": "Mackellar Motel",
      "lat": -30.9797594,
      "lng": 150.2577127,
      "fuelTypes": [
        "ev"
      ],
      "status": "no_fuel",
      "confidence": "high",
      "firstReported": "2026-04-20T18:50:19.704Z",
      "lastConfirmed": "2026-04-20T18:50:19.704Z",
      "sources": [
        "govprices-nsw"
      ]
    },
    "19307": {
      "stationName": "Maclean Supercharger",
      "lat": -29.422442,
      "lng": 153.2399732,
      "fuelTypes": [
        "ev"
      ],
      "status": "no_fuel",
      "confidence": "high",
      "firstReported": "2026-04-20T18:50:19.704Z",
      "lastConfirmed": "2026-04-20T18:50:19.704Z",
      "sources": [
        "govprices-nsw"
      ]
    },
    "19308": {
      "stationName": "Macquarie Centre - Chargepoint",
      "lat": -33.7760506,
      "lng": 151.1222793,
      "fuelTypes": [
        "ev"
      ],
      "status": "no_fuel",
      "confidence": "high",
      "firstReported": "2026-04-20T18:50:19.704Z",
      "lastConfirmed": "2026-04-20T18:50:19.704Z",
      "sources": [
        "govprices-nsw"
      ]
    },
    "19309": {
      "stationName": "Macquarie Park Supercharger",
      "lat": -33.7772778,
      "lng": 151.1236512,
      "fuelTypes": [
        "ev"
      ],
      "status": "no_fuel",
      "confidence": "high",
      "firstReported": "2026-04-20T18:50:19.704Z",
      "lastConfirmed": "2026-04-20T18:50:19.704Z",
      "sources": [
        "govprices-nsw"
      ]
    },
    "19310": {
      "stationName": "Macquarie University",
      "lat": -33.7738237,
      "lng": 151.1126498,
      "fuelTypes": [
        "ev"
      ],
      "status": "no_fuel",
      "confidence": "high",
      "firstReported": "2026-04-20T18:50:19.704Z",
      "lastConfirmed": "2026-04-20T18:50:19.704Z",
      "sources": [
        "govprices-nsw"
      ]
    },
    "19311": {
      "stationName": "Mandarin Motel",
      "lat": -30.708589,
      "lng": 152.9187168,
      "fuelTypes": [
        "ev"
      ],
      "status": "no_fuel",
      "confidence": "high",
      "firstReported": "2026-04-20T18:50:19.704Z",
      "lastConfirmed": "2026-04-20T18:50:19.704Z",
      "sources": [
        "govprices-nsw"
      ]
    },
    "19312": {
      "stationName": "Marina Square Shopping Centre Wentworth Point",
      "lat": -33.8245423,
      "lng": 151.0789793,
      "fuelTypes": [
        "ev"
      ],
      "status": "no_fuel",
      "confidence": "high",
      "firstReported": "2026-04-20T18:50:19.704Z",
      "lastConfirmed": "2026-04-20T18:50:19.704Z",
      "sources": [
        "govprices-nsw"
      ]
    },
    "19313": {
      "stationName": "Marina Square Shopping Centre Wentworth Point",
      "lat": -33.8245423,
      "lng": 151.0790793,
      "fuelTypes": [
        "ev"
      ],
      "status": "no_fuel",
      "confidence": "high",
      "firstReported": "2026-04-20T18:50:19.704Z",
      "lastConfirmed": "2026-04-20T18:50:19.704Z",
      "sources": [
        "govprices-nsw"
      ]
    },
    "19314": {
      "stationName": "Max Webber Library",
      "lat": -33.7716336,
      "lng": 150.9086078,
      "fuelTypes": [
        "ev"
      ],
      "status": "no_fuel",
      "confidence": "high",
      "firstReported": "2026-04-20T18:50:19.704Z",
      "lastConfirmed": "2026-04-20T18:50:19.704Z",
      "sources": [
        "govprices-nsw"
      ]
    },
    "19315": {
      "stationName": "McDonald's",
      "lat": -33.6996291,
      "lng": 150.9576895,
      "fuelTypes": [
        "ev"
      ],
      "status": "no_fuel",
      "confidence": "high",
      "firstReported": "2026-04-20T18:50:19.704Z",
      "lastConfirmed": "2026-04-20T18:50:19.704Z",
      "sources": [
        "govprices-nsw"
      ]
    },
    "19316": {
      "stationName": "McDonald's Dural",
      "lat": -33.6958229,
      "lng": 151.0315945,
      "fuelTypes": [
        "ev"
      ],
      "status": "no_fuel",
      "confidence": "high",
      "firstReported": "2026-04-20T18:50:19.704Z",
      "lastConfirmed": "2026-04-20T18:50:19.704Z",
      "sources": [
        "govprices-nsw"
      ]
    },
    "19317": {
      "stationName": "McTavish Surf",
      "lat": -28.6365833,
      "lng": 153.580196,
      "fuelTypes": [
        "ev"
      ],
      "status": "no_fuel",
      "confidence": "high",
      "firstReported": "2026-04-20T18:50:19.704Z",
      "lastConfirmed": "2026-04-20T18:50:19.704Z",
      "sources": [
        "govprices-nsw"
      ]
    },
    "19318": {
      "stationName": "Meninya Palms Moama",
      "lat": -36.1111595,
      "lng": 144.7539036,
      "fuelTypes": [
        "ev"
      ],
      "status": "no_fuel",
      "confidence": "high",
      "firstReported": "2026-04-20T18:50:19.704Z",
      "lastConfirmed": "2026-04-20T18:50:19.704Z",
      "sources": [
        "govprices-nsw"
      ]
    },
    "19319": {
      "stationName": "Mercato Shopping Centre",
      "lat": -28.6470279,
      "lng": 153.6124725,
      "fuelTypes": [
        "ev"
      ],
      "status": "no_fuel",
      "confidence": "high",
      "firstReported": "2026-04-20T18:50:19.704Z",
      "lastConfirmed": "2026-04-20T18:50:19.704Z",
      "sources": [
        "govprices-nsw"
      ]
    },
    "19320": {
      "stationName": "Mercure Hotel",
      "lat": -33.8842625,
      "lng": 151.203022,
      "fuelTypes": [
        "ev"
      ],
      "status": "no_fuel",
      "confidence": "high",
      "firstReported": "2026-04-20T18:50:19.704Z",
      "lastConfirmed": "2026-04-20T18:50:19.705Z",
      "sources": [
        "govprices-nsw"
      ]
    },
    "19321": {
      "stationName": "Micro Energy Systems Australia",
      "lat": -36.0959078,
      "lng": 150.0511597,
      "fuelTypes": [
        "ev"
      ],
      "status": "no_fuel",
      "confidence": "high",
      "firstReported": "2026-04-20T18:50:19.704Z",
      "lastConfirmed": "2026-04-20T18:50:19.704Z",
      "sources": [
        "govprices-nsw"
      ]
    },
    "19322": {
      "stationName": "Mill Hill Centre",
      "lat": -33.8924759,
      "lng": 151.2461293,
      "fuelTypes": [
        "ev"
      ],
      "status": "no_fuel",
      "confidence": "high",
      "firstReported": "2026-04-20T18:50:19.704Z",
      "lastConfirmed": "2026-04-20T18:50:19.704Z",
      "sources": [
        "govprices-nsw"
      ]
    },
    "19323": {
      "stationName": "Milton Park Country House",
      "lat": -34.4989528,
      "lng": 150.4815589,
      "fuelTypes": [
        "ev"
      ],
      "status": "no_fuel",
      "confidence": "high",
      "firstReported": "2026-04-20T18:50:19.704Z",
      "lastConfirmed": "2026-04-20T18:50:19.704Z",
      "sources": [
        "govprices-nsw"
      ]
    },
    "19324": {
      "stationName": "Milton Park Country House",
      "lat": -34.4989528,
      "lng": 150.4816589,
      "fuelTypes": [
        "ev"
      ],
      "status": "no_fuel",
      "confidence": "high",
      "firstReported": "2026-04-20T18:50:19.704Z",
      "lastConfirmed": "2026-04-20T18:50:19.704Z",
      "sources": [
        "govprices-nsw"
      ]
    },
    "19325": {
      "stationName": "Mino + Co Wines Cellar Door",
      "lat": -34.3398882,
      "lng": 146.0589659,
      "fuelTypes": [
        "ev"
      ],
      "status": "no_fuel",
      "confidence": "high",
      "firstReported": "2026-04-20T18:50:19.704Z",
      "lastConfirmed": "2026-04-20T18:50:19.704Z",
      "sources": [
        "govprices-nsw"
      ]
    },
    "19326": {
      "stationName": "Mirvac South Eveleigh",
      "lat": -33.8961195,
      "lng": 151.1951555,
      "fuelTypes": [
        "ev"
      ],
      "status": "no_fuel",
      "confidence": "high",
      "firstReported": "2026-04-20T18:50:19.704Z",
      "lastConfirmed": "2026-04-20T18:50:19.704Z",
      "sources": [
        "govprices-nsw"
      ]
    },
    "19327": {
      "stationName": "Mirvac South Eveleigh",
      "lat": -33.8961195,
      "lng": 151.1952555,
      "fuelTypes": [
        "ev"
      ],
      "status": "no_fuel",
      "confidence": "high",
      "firstReported": "2026-04-20T18:50:19.704Z",
      "lastConfirmed": "2026-04-20T18:50:19.704Z",
      "sources": [
        "govprices-nsw"
      ]
    },
    "19328": {
      "stationName": "Mittagong RSL Car Park",
      "lat": -34.450216,
      "lng": 150.4430868,
      "fuelTypes": [
        "ev"
      ],
      "status": "no_fuel",
      "confidence": "high",
      "firstReported": "2026-04-20T18:50:19.704Z",
      "lastConfirmed": "2026-04-20T18:50:19.704Z",
      "sources": [
        "govprices-nsw"
      ]
    },
    "19329": {
      "stationName": "Mittagong Visitor Information Centre",
      "lat": -34.4499343,
      "lng": 150.4519611,
      "fuelTypes": [
        "ev"
      ],
      "status": "no_fuel",
      "confidence": "high",
      "firstReported": "2026-04-20T18:50:19.704Z",
      "lastConfirmed": "2026-04-20T18:50:19.704Z",
      "sources": [
        "govprices-nsw"
      ]
    },
    "19330": {
      "stationName": "Mollymook Seascape Motel",
      "lat": -35.3461969,
      "lng": 150.4705258,
      "fuelTypes": [
        "ev"
      ],
      "status": "no_fuel",
      "confidence": "high",
      "firstReported": "2026-04-20T18:50:19.704Z",
      "lastConfirmed": "2026-04-20T18:50:19.704Z",
      "sources": [
        "govprices-nsw"
      ]
    },
    "19331": {
      "stationName": "Mollymook Surfbeach Motel",
      "lat": -35.339796,
      "lng": 150.4728481,
      "fuelTypes": [
        "ev"
      ],
      "status": "no_fuel",
      "confidence": "high",
      "firstReported": "2026-04-20T18:50:19.704Z",
      "lastConfirmed": "2026-04-20T18:50:19.704Z",
      "sources": [
        "govprices-nsw"
      ]
    },
    "19332": {
      "stationName": "Moruya Golf Club",
      "lat": -35.9139953,
      "lng": 150.0753668,
      "fuelTypes": [
        "ev"
      ],
      "status": "no_fuel",
      "confidence": "high",
      "firstReported": "2026-04-20T18:50:19.704Z",
      "lastConfirmed": "2026-04-20T18:50:19.704Z",
      "sources": [
        "govprices-nsw"
      ]
    },
    "19333": {
      "stationName": "Mosman Council",
      "lat": -33.8255979,
      "lng": 151.2413993,
      "fuelTypes": [
        "ev"
      ],
      "status": "no_fuel",
      "confidence": "high",
      "firstReported": "2026-04-20T18:50:19.704Z",
      "lastConfirmed": "2026-04-20T18:50:19.704Z",
      "sources": [
        "govprices-nsw"
      ]
    },
    "19334": {
      "stationName": "Mount Druitt Hub",
      "lat": -33.7673709,
      "lng": 150.8217792,
      "fuelTypes": [
        "ev"
      ],
      "status": "no_fuel",
      "confidence": "high",
      "firstReported": "2026-04-20T18:50:19.704Z",
      "lastConfirmed": "2026-04-20T18:50:19.704Z",
      "sources": [
        "govprices-nsw"
      ]
    },
    "19335": {
      "stationName": "Mountain Ridge Wines",
      "lat": -34.8402325,
      "lng": 150.7320802,
      "fuelTypes": [
        "ev"
      ],
      "status": "no_fuel",
      "confidence": "high",
      "firstReported": "2026-04-20T18:50:19.704Z",
      "lastConfirmed": "2026-04-20T18:50:19.704Z",
      "sources": [
        "govprices-nsw"
      ]
    },
    "19336": {
      "stationName": "Mountain Ridge Wines",
      "lat": -34.8402325,
      "lng": 150.7321802,
      "fuelTypes": [
        "ev"
      ],
      "status": "no_fuel",
      "confidence": "high",
      "firstReported": "2026-04-20T18:50:19.704Z",
      "lastConfirmed": "2026-04-20T18:50:19.704Z",
      "sources": [
        "govprices-nsw"
      ]
    },
    "19337": {
      "stationName": "Mudgee Information Centre",
      "lat": -32.5903292,
      "lng": 149.5853481,
      "fuelTypes": [
        "ev"
      ],
      "status": "no_fuel",
      "confidence": "high",
      "firstReported": "2026-04-20T18:50:19.704Z",
      "lastConfirmed": "2026-04-20T18:50:19.704Z",
      "sources": [
        "govprices-nsw"
      ]
    },
    "19338": {
      "stationName": "Muir St Parking/Charging",
      "lat": -32.7389826,
      "lng": 151.8672424,
      "fuelTypes": [
        "ev"
      ],
      "status": "no_fuel",
      "confidence": "high",
      "firstReported": "2026-04-20T18:50:19.704Z",
      "lastConfirmed": "2026-04-20T18:50:19.704Z",
      "sources": [
        "govprices-nsw"
      ]
    },
    "19339": {
      "stationName": "Nabiac Park",
      "lat": -32.0993292,
      "lng": 152.3811552,
      "fuelTypes": [
        "ev"
      ],
      "status": "no_fuel",
      "confidence": "high",
      "firstReported": "2026-04-20T18:50:19.704Z",
      "lastConfirmed": "2026-04-20T18:50:19.704Z",
      "sources": [
        "govprices-nsw"
      ]
    },
    "19340": {
      "stationName": "Nambucca Plaza Shopping Centre",
      "lat": -30.6542475,
      "lng": 152.9877174,
      "fuelTypes": [
        "ev"
      ],
      "status": "no_fuel",
      "confidence": "high",
      "firstReported": "2026-04-20T18:50:19.704Z",
      "lastConfirmed": "2026-04-20T18:50:19.704Z",
      "sources": [
        "govprices-nsw"
      ]
    },
    "19341": {
      "stationName": "Narara Ecovillage Coffee Cart",
      "lat": -33.3934017,
      "lng": 151.3293208,
      "fuelTypes": [
        "ev"
      ],
      "status": "no_fuel",
      "confidence": "high",
      "firstReported": "2026-04-20T18:50:19.704Z",
      "lastConfirmed": "2026-04-20T18:50:19.704Z",
      "sources": [
        "govprices-nsw"
      ]
    },
    "19342": {
      "stationName": "Narooma Supercharger",
      "lat": -36.2224529,
      "lng": 150.1277229,
      "fuelTypes": [
        "ev"
      ],
      "status": "no_fuel",
      "confidence": "high",
      "firstReported": "2026-04-20T18:50:19.704Z",
      "lastConfirmed": "2026-04-20T18:50:19.704Z",
      "sources": [
        "govprices-nsw"
      ]
    },
    "19343": {
      "stationName": "Narrandera Park",
      "lat": -34.7466273,
      "lng": 146.5501803,
      "fuelTypes": [
        "ev"
      ],
      "status": "no_fuel",
      "confidence": "high",
      "firstReported": "2026-04-20T18:50:19.704Z",
      "lastConfirmed": "2026-04-20T18:50:19.704Z",
      "sources": [
        "govprices-nsw"
      ]
    },
    "19344": {
      "stationName": "National Transport Museum Inverell",
      "lat": -29.7910481,
      "lng": 151.1211823,
      "fuelTypes": [
        "ev"
      ],
      "status": "no_fuel",
      "confidence": "high",
      "firstReported": "2026-04-20T18:50:19.704Z",
      "lastConfirmed": "2026-04-20T18:50:19.704Z",
      "sources": [
        "govprices-nsw"
      ]
    },
    "19345": {
      "stationName": "Nelson Resort & Conference Centre",
      "lat": -32.7207476,
      "lng": 152.1429882,
      "fuelTypes": [
        "ev"
      ],
      "status": "no_fuel",
      "confidence": "high",
      "firstReported": "2026-04-20T18:50:19.704Z",
      "lastConfirmed": "2026-04-20T18:50:19.704Z",
      "sources": [
        "govprices-nsw"
      ]
    },
    "19346": {
      "stationName": "Newcastle Links Motel",
      "lat": -32.8708409,
      "lng": 151.7936776,
      "fuelTypes": [
        "ev"
      ],
      "status": "no_fuel",
      "confidence": "high",
      "firstReported": "2026-04-20T18:50:19.704Z",
      "lastConfirmed": "2026-04-20T18:50:19.704Z",
      "sources": [
        "govprices-nsw"
      ]
    },